[
  {
    "name": "Приволжские магистральные нефтепроводы, филиал",
    "address": "Ростовская обл., Сальский р-н, Манычстрой поселок",
    "okved_code": "49.50.1",
    "okved_name": "Транспортирование по трубопроводам нефти и нефтепродуктов",
    "city": "Пролетарск",
    "location": "46.619 41.656",
    "preds": 0.146775808,
    "target": 0
  },
  {
    "name": "Фаза, ОАО, научно-производственная компания",
    "address": "Белорусская, 9/7г - 4 этаж",
    "okved_code": "26.11",
    "okved_name": "Производство элементов электронной аппаратуры",
    "city": "Ростов-на-Дону",
    "location": "47.277 39.762",
    "preds": 0.1022138686,
    "target": 0
  },
  {
    "name": "Фаза, ОАО, научно-производственная компания",
    "address": "Белорусская, 9/7г - 4 этаж",
    "okved_code": "26.11",
    "okved_name": "Производство элементов электронной аппаратуры",
    "city": "Ростов-на-Дону",
    "location": "47.277 39.762",
    "preds": 0.1022138686,
    "target": 0
  },
  {
    "name": "Федеральная пассажирская компания",
    "address": "Привокзальная площадь, 2/1, Ростов-на-Дону",
    "okved_code": "49.10.1",
    "okved_name": "Перевозка пассажиров железнодорожным транспортом в междугородном сообщении",
    "city": "Ростов-на-Дону",
    "location": "47.217 39.695",
    "preds": 0.0990427191,
    "target": 0
  },
  {
    "name": "Северо-кавказская Региональная дирекция железнодорожных вокзалов",
    "address": "Привокзальная площадь, 1/2, Ростов-на-Дону",
    "okved_code": "49.10.11",
    "okved_name": "Перевозка пассажиров железнодорожным транспортом в междугородном сообщении в регулируемом секторе",
    "city": "Ростов-на-Дону",
    "location": "47.218 39.691",
    "preds": 0.0990427191,
    "target": 0
  },
  {
    "name": "Тагэкспертгаз",
    "address": "Петровская ул., 120, Таганрог",
    "okved_code": "42.21",
    "okved_name": "Строительство инженерных коммуникаций для водоснабжения и водоотведения, газоснабжения",
    "city": "Таганрог",
    "location": "47.222 38.920",
    "preds": 0.0956573399,
    "target": 0
  },
  {
    "name": "Тагэкспертгаз",
    "address": "Петровская ул., 120, Таганрог",
    "okved_code": "42.21",
    "okved_name": "Строительство инженерных коммуникаций для водоснабжения и водоотведения, газоснабжения",
    "city": "Таганрог",
    "location": "47.222 38.920",
    "preds": 0.0956573399,
    "target": 0
  },
  {
    "name": "Тагэкспертгаз, компания",
    "address": "Петровская, 120",
    "okved_code": "42.21",
    "okved_name": "Строительство инженерных коммуникаций для водоснабжения и водоотведения, газоснабжения",
    "city": "Таганрог",
    "location": "47.222 38.919",
    "preds": 0.0956573399,
    "target": 0
  },
  {
    "name": "Фромир",
    "address": "просп. Ленина, 44/13, Ростов-на-Дону",
    "okved_code": "72.19",
    "okved_name": "Научные исследования и разработки в области естественных и технических наук прочие",
    "city": "Ростов-на-Дону",
    "location": "47.250 39.704",
    "preds": 0.0947154587,
    "target": 0
  },
  {
    "name": "Фромир, ООО, научно-производственное предприятие",
    "address": "Ленина проспект, 44/13 - 1 этаж",
    "okved_code": "72.19",
    "okved_name": "Научные исследования и разработки в области естественных и технических наук прочие",
    "city": "Ростов-на-Дону",
    "location": "47.251 39.704",
    "preds": 0.0947154587,
    "target": 0
  },
  {
    "name": "Фромир",
    "address": "просп. Ленина, 44/13, Ростов-на-Дону",
    "okved_code": "72.19",
    "okved_name": "Научные исследования и разработки в области естественных и технических наук прочие",
    "city": "Ростов-на-Дону",
    "location": "47.250 39.704",
    "preds": 0.0947154587,
    "target": 0
  },
  {
    "name": "ТВЦ",
    "address": "проспект Михаила Нагибина, 30",
    "okved_code": "30.30.3",
    "okved_name": "Производство вертолетов, самолетов и прочих летательных аппаратов",
    "city": "Ростов-на-Дону",
    "location": "47.256 39.718",
    "preds": 0.0937425881,
    "target": 0
  },
  {
    "name": "Роствертол, ПАО, вертолетный завод",
    "address": "Новаторов, 5 | Новаторов, 16",
    "okved_code": "30.30.3",
    "okved_name": "Производство вертолетов, самолетов и прочих летательных аппаратов",
    "city": "Ростов-на-Дону",
    "location": "47.251 39.723",
    "preds": 0.0937425881,
    "target": 0
  },
  {
    "name": "Роствертол",
    "address": "ул. Новаторов, 5, Ростов-на-Дону | Россия, Ростов-на-Дону, Ворошиловский район",
    "okved_code": "30.30.3",
    "okved_name": "Производство вертолетов, самолетов и прочих летательных аппаратов",
    "city": "Ростов-на-Дону",
    "location": "47.254 39.746",
    "preds": 0.0937425881,
    "target": 0
  },
  {
    "name": "Росвертол",
    "address": "ул. Новаторов, 5, Ростов-на-Дону",
    "okved_code": "30.30.3",
    "okved_name": "Производство вертолетов, самолетов и прочих летательных аппаратов",
    "city": "Ростов-на-Дону",
    "location": "47.252 39.724",
    "preds": 0.0937425881,
    "target": 0
  },
  {
    "name": "Росвертол",
    "address": "ул. Новаторов, 5, Ростов-на-Дону",
    "okved_code": "30.30.3",
    "okved_name": "Производство вертолетов, самолетов и прочих летательных аппаратов",
    "city": "Ростов-на-Дону",
    "location": "47.252 39.724",
    "preds": 0.0937425881,
    "target": 0
  },
  {
    "name": "Управление Федеральной Почтовой Связи, филиал",
    "address": "Лермонтовская улица, 116",
    "okved_code": "53.10",
    "okved_name": "Деятельность почтовой связи общего пользования",
    "city": "Ростов-на-Дону",
    "location": "47.231 39.717",
    "preds": 0.0932381001,
    "target": 0
  },
  {
    "name": "СовПлим",
    "address": "улица Вавилова, 62В",
    "okved_code": "28.25.1",
    "okved_name": "Производство теплообменных устройств, оборудования для кондиционирования воздуха промышленного холодильного и морозильного оборудования, производство оборудования для фильтрования и очистки газов",
    "city": "Ростов-на-Дону",
    "location": "47.275 39.687",
    "preds": 0.088183086,
    "target": 0
  },
  {
    "name": "СовПлим, ЗАО, производственно-коммерческая компания",
    "address": "Вавилова, 62в - 315 офис, 3 этаж",
    "okved_code": "28.25.1",
    "okved_name": "Производство теплообменных устройств, оборудования для кондиционирования воздуха промышленного холодильного и морозильного оборудования, производство оборудования для фильтрования и очистки газов",
    "city": "Ростов-на-Дону",
    "location": "47.275 39.687",
    "preds": 0.088183086,
    "target": 0
  },
  {
    "name": "СовПлим, ЗАО, производственно-коммерческая компания",
    "address": "Вавилова, 62в - 315 офис, 3 этаж",
    "okved_code": "28.25.1",
    "okved_name": "Производство теплообменных устройств, оборудования для кондиционирования воздуха промышленного холодильного и морозильного оборудования, производство оборудования для фильтрования и очистки газов",
    "city": "Ростов-на-Дону",
    "location": "47.275 39.687",
    "preds": 0.088183086,
    "target": 0
  },
  {
    "name": "СовПлим",
    "address": "улица Вавилова, 62В",
    "okved_code": "28.25.1",
    "okved_name": "Производство теплообменных устройств, оборудования для кондиционирования воздуха промышленного холодильного и морозильного оборудования, производство оборудования для фильтрования и очистки газов",
    "city": "Ростов-на-Дону",
    "location": "47.275 39.687",
    "preds": 0.088183086,
    "target": 0
  },
  {
    "name": "СовПлим",
    "address": "улица Вавилова, 62В",
    "okved_code": "28.25.1",
    "okved_name": "Производство теплообменных устройств, оборудования для кондиционирования воздуха промышленного холодильного и морозильного оборудования, производство оборудования для фильтрования и очистки газов",
    "city": "Ростов-на-Дону",
    "location": "47.275 39.687",
    "preds": 0.088183086,
    "target": 0
  },
  {
    "name": "СовПлим, ЗАО, производственно-коммерческая компания",
    "address": "Вавилова, 62в - 315 офис, 3 этаж",
    "okved_code": "28.25.1",
    "okved_name": "Производство теплообменных устройств, оборудования для кондиционирования воздуха промышленного холодильного и морозильного оборудования, производство оборудования для фильтрования и очистки газов",
    "city": "Ростов-на-Дону",
    "location": "47.275 39.687",
    "preds": 0.088183086,
    "target": 0
  },
  {
    "name": "СовПлим, ЗАО, производственно-коммерческая компания",
    "address": "Вавилова, 62в - 315 офис, 3 этаж",
    "okved_code": "28.25.1",
    "okved_name": "Производство теплообменных устройств, оборудования для кондиционирования воздуха промышленного холодильного и морозильного оборудования, производство оборудования для фильтрования и очистки газов",
    "city": "Ростов-на-Дону",
    "location": "47.275 39.687",
    "preds": 0.088183086,
    "target": 0
  },
  {
    "name": "ПК Монолит",
    "address": "улица Чапаева, 303",
    "okved_code": "10.20",
    "okved_name": "Переработка и консервирование рыбы, ракообразных и моллюсков",
    "city": "Аксай",
    "location": "47.270 39.890",
    "preds": 0.085223544,
    "target": 0
  },
  {
    "name": "МОНОЛИТ, ПК, производственная компания",
    "address": "Чапаева, 303",
    "okved_code": "10.20",
    "okved_name": "Переработка и консервирование рыбы, ракообразных и моллюсков",
    "city": "Аксай",
    "location": "47.270 39.890",
    "preds": 0.085223544,
    "target": 0
  },
  {
    "name": "Миусский Лиман",
    "address": "Кутузовский переулок, 59",
    "okved_code": "03.22.2",
    "okved_name": "Рыбоводство пресноводное пастбищное",
    "city": "Таганрог",
    "location": "47.305 38.836",
    "preds": 0.0818783762,
    "target": 0
  },
  {
    "name": "ГПЗ-10, ОАО Десятый Подшипниковый Завод",
    "address": "Пескова, 1/2 䎢",
    "okved_code": "28.15.1",
    "okved_name": "Производство шариковых и роликовых подшипников",
    "city": "Ростов-на-Дону",
    "location": "47.203 39.609",
    "preds": 0.0813550588,
    "target": 0
  },
  {
    "name": "Платья и блузы, магазин женской одежды",
    "address": "Сельмаш проспект, 33 - 22 павильон, 1 этаж",
    "okved_code": "14.13",
    "okved_name": "Производство прочей верхней одежды",
    "city": "Ростов-на-Дону",
    "location": "47.257 39.766",
    "preds": 0.0813511526,
    "target": 0
  },
  {
    "name": "Elis",
    "address": "просп. Михаила Нагибина, 32, корп. 2, Ростов-на-Дону",
    "okved_code": "14.13",
    "okved_name": "Производство прочей верхней одежды",
    "city": "Ростов-на-Дону",
    "location": "47.260 39.721",
    "preds": 0.0813511526,
    "target": 0
  },
  {
    "name": "Элис Фэшн Рус",
    "address": "Народная улица, 1",
    "okved_code": "14.13",
    "okved_name": "Производство прочей верхней одежды",
    "city": "Новочеркасск",
    "location": "47.424 40.081",
    "preds": 0.0813511526,
    "target": 0
  },
  {
    "name": "Elis, сеть магазинов женской одежды, АО ЭЛИС ФЭШН РУС",
    "address": "Мира площадь, 7 - 1 этаж | Петровская, 69 / Антона Глушко переулок, 6",
    "okved_code": "14.13",
    "okved_name": "Производство прочей верхней одежды",
    "city": "Таганрог",
    "location": "47.218 38.899",
    "preds": 0.0813511526,
    "target": 0
  },
  {
    "name": "ДОЛ им. О. Кошевого",
    "address": "Россия, Ростовская область, Каменский район",
    "okved_code": "20.60",
    "okved_name": "Производство химических волокон",
    "city": "Каменск-Шахтинский",
    "location": "48.242 40.481",
    "preds": 0.0802707938,
    "target": 0
  },
  {
    "name": "Каменскволокно, АО, производственно-торговая фирма",
    "address": "Вити Черевичкина, 68",
    "okved_code": "20.60",
    "okved_name": "Производство химических волокон",
    "city": "Ростов-на-Дону",
    "location": "47.236 39.778",
    "preds": 0.0802707938,
    "target": 0
  },
  {
    "name": "Каменскволокно",
    "address": "ул. Сапрыгина, 1, Каменск-Шахтинский",
    "okved_code": "20.60",
    "okved_name": "Производство химических волокон",
    "city": "Каменск-Шахтинский",
    "location": "48.326 40.245",
    "preds": 0.0802707938,
    "target": 0
  },
  {
    "name": "Каменскволокно",
    "address": "ул. Сапрыгина, 1, Каменск-Шахтинский",
    "okved_code": "20.60",
    "okved_name": "Производство химических волокон",
    "city": "Каменск-Шахтинский",
    "location": "48.326 40.245",
    "preds": 0.0802707938,
    "target": 0
  },
  {
    "name": "АО Каменскволокно",
    "address": "Россия, Ростовская область, Каменск-Шахтинский",
    "okved_code": "20.60",
    "okved_name": "Производство химических волокон",
    "city": "Каменск-Шахтинский",
    "location": "48.326 40.243",
    "preds": 0.0802707938,
    "target": 0
  },
  {
    "name": "Каменскволокно",
    "address": "ул. Сапрыгина, 1, Каменск-Шахтинский",
    "okved_code": "20.60",
    "okved_name": "Производство химических волокон",
    "city": "Каменск-Шахтинский",
    "location": "48.326 40.245",
    "preds": 0.0802707938,
    "target": 0
  },
  {
    "name": "Шахтоуправление Обуховская",
    "address": "Советская ул., 13, Зверево | Рижская ул., 13, Зверево",
    "okved_code": "05.10.14",
    "okved_name": "Добыча антрацита подземным способом",
    "city": "Зверево",
    "location": "48.043 40.132",
    "preds": 0.0801176645,
    "target": 0
  },
  {
    "name": "ИСТК Komatsu, федеральная сеть",
    "address": "Нижнетемерницкий (Аксайский район), Гайдара, 6 - 20 офис",
    "okved_code": "45.19.1",
    "okved_name": "Торговля оптовая прочими автотранспортными средствами, кроме пассажирских",
    "city": "Ростов-на-Дону",
    "location": "47.366 39.717",
    "preds": 0.0792752517,
    "target": 0
  },
  {
    "name": "ИСТК Komatsu, федеральная сеть",
    "address": "Нижнетемерницкий (Аксайский район), Гайдара, 6 - 20 офис",
    "okved_code": "45.19.1",
    "okved_name": "Торговля оптовая прочими автотранспортными средствами, кроме пассажирских",
    "city": "Ростов-на-Дону",
    "location": "47.366 39.717",
    "preds": 0.0792752517,
    "target": 0
  },
  {
    "name": "ИСТК Komatsu, федеральная сеть",
    "address": "Нижнетемерницкий (Аксайский район), Гайдара, 6 - 20 офис",
    "okved_code": "45.19.1",
    "okved_name": "Торговля оптовая прочими автотранспортными средствами, кроме пассажирских",
    "city": "Ростов-на-Дону",
    "location": "47.366 39.717",
    "preds": 0.0792752517,
    "target": 0
  },
  {
    "name": "ИСТК Komatsu, федеральная сеть",
    "address": "Нижнетемерницкий (Аксайский район), Гайдара, 6 - 20 офис",
    "okved_code": "45.19.1",
    "okved_name": "Торговля оптовая прочими автотранспортными средствами, кроме пассажирских",
    "city": "Ростов-на-Дону",
    "location": "47.366 39.717",
    "preds": 0.0792752517,
    "target": 0
  },
  {
    "name": "ИСТК Komatsu, федеральная сеть",
    "address": "Нижнетемерницкий (Аксайский район), Гайдара, 6 - 20 офис",
    "okved_code": "45.19.1",
    "okved_name": "Торговля оптовая прочими автотранспортными средствами, кроме пассажирских",
    "city": "Ростов-на-Дону",
    "location": "47.366 39.717",
    "preds": 0.0792752517,
    "target": 0
  },
  {
    "name": "Новочеркасская фабрика Интерактива",
    "address": "Михайловская ул., 164А䆡, Новочеркасск",
    "okved_code": "72.19",
    "okved_name": "Научные исследования и разработки в области естественных и технических наук прочие",
    "city": "Новочеркасск",
    "location": "47.415 40.081",
    "preds": 0.0791136752,
    "target": 0
  },
  {
    "name": "Новочеркасская фабрика Интерактива",
    "address": "Михайловская ул., 164А䆡, Новочеркасск",
    "okved_code": "72.19",
    "okved_name": "Научные исследования и разработки в области естественных и технических наук прочие",
    "city": "Новочеркасск",
    "location": "47.415 40.081",
    "preds": 0.0791136752,
    "target": 0
  },
  {
    "name": "Новочеркасская фабрика Интерактива",
    "address": "Михайловская ул., 164А䆡, Новочеркасск",
    "okved_code": "72.19",
    "okved_name": "Научные исследования и разработки в области естественных и технических наук прочие",
    "city": "Новочеркасск",
    "location": "47.415 40.081",
    "preds": 0.0791136752,
    "target": 0
  },
  {
    "name": "РостФНИИАС, научно-исследовательский и проектно-конструкторский институт информатизации, автоматизации и связи на железнодорожном транспорте, Ростовский филиал",
    "address": "Ленина проспект, 44/13 - 2 этаж",
    "okved_code": "52.21.24",
    "okved_name": "Деятельность стоянок для транспортных средств",
    "city": "Ростов-на-Дону",
    "location": "47.251 39.704",
    "preds": 0.078586012,
    "target": 0
  },
  {
    "name": "Нииас, Ростовский филиал",
    "address": "просп. Ленина, 44/13, Ростов-на-Дону",
    "okved_code": "52.21.24",
    "okved_name": "Деятельность стоянок для транспортных средств",
    "city": "Ростов-на-Дону",
    "location": "47.250 39.704",
    "preds": 0.078586012,
    "target": 0
  },
  {
    "name": "РостФНИИАС, научно-исследовательский и проектно-конструкторский институт информатизации, автоматизации и связи на железнодорожном транспорте, Ростовский филиал",
    "address": "Ленина проспект, 44/13 - 2 этаж",
    "okved_code": "52.21.24",
    "okved_name": "Деятельность стоянок для транспортных средств",
    "city": "Ростов-на-Дону",
    "location": "47.251 39.704",
    "preds": 0.078586012,
    "target": 0
  },
  {
    "name": "Глория Джинс - Gloria Jeans",
    "address": "ул. Льва Толстого, 46А, Миллерово",
    "okved_code": "14.13",
    "okved_name": "Производство прочей верхней одежды",
    "city": "Миллерово",
    "location": "48.926 40.402",
    "preds": 0.0759943527,
    "target": 0
  },
  {
    "name": "Глория Джинс - Gloria Jeans",
    "address": "Морская ул., 86, Волгодонск | просп. Строителей, 21, Волгодонск",
    "okved_code": "14.13",
    "okved_name": "Производство прочей верхней одежды",
    "city": "Волгодонск",
    "location": "47.517 42.159",
    "preds": 0.0759943527,
    "target": 0
  },
  {
    "name": "Глория Джинс - Gloria Jeans",
    "address": "улица Максима Горького, 11",
    "okved_code": "14.13",
    "okved_name": "Производство прочей верхней одежды",
    "city": "Белая Калитва",
    "location": "48.283 41.048",
    "preds": 0.0759943527,
    "target": 0
  },
  {
    "name": "Глория Джинс - Gloria Jeans",
    "address": "просп. Строителей, 21, Волгодонск",
    "okved_code": "14.13",
    "okved_name": "Производство прочей верхней одежды",
    "city": "Волгодонск",
    "location": "47.518 42.199",
    "preds": 0.0759943527,
    "target": 0
  },
  {
    "name": "Gloria Jeans, сеть магазинов",
    "address": "Сельмаш проспект, 20 / Селиванова, 51 - 1 этаж | Большая Садовая, 68 / Семашко переулок, 40 - 1 этаж | Михаила Нагибина проспект, 32/2 / Омская, 2Б - 2 этаж | Михаила Нагибина проспект, 17 - 2 этаж, 2 уровень | Малиновского, 25 - 1 этаж | Волкова, 6 - цокольный этаж",
    "okved_code": "14.13",
    "okved_name": "Производство прочей верхней одежды",
    "city": "Ростов-на-Дону",
    "location": "47.282 39.711",
    "preds": 0.0759943527,
    "target": 0
  },
  {
    "name": "Глория Джинс - Gloria Jeans",
    "address": "ул. Льва Толстого, 46А, Миллерово",
    "okved_code": "14.13",
    "okved_name": "Производство прочей верхней одежды",
    "city": "Миллерово",
    "location": "48.926 40.402",
    "preds": 0.0759943527,
    "target": 0
  },
  {
    "name": "Gloria Jeans, сеть магазинов",
    "address": "Сельмаш проспект, 20 / Селиванова, 51 - 1 этаж | Большая Садовая, 68 / Семашко переулок, 40 - 1 этаж | Михаила Нагибина проспект, 32/2 / Омская, 2Б - 2 этаж | Михаила Нагибина проспект, 17 - 2 этаж, 2 уровень | Малиновского, 25 - 1 этаж | Волкова, 6 - цокольный этаж",
    "okved_code": "14.13",
    "okved_name": "Производство прочей верхней одежды",
    "city": "Ростов-на-Дону",
    "location": "47.282 39.711",
    "preds": 0.0759943527,
    "target": 0
  },
  {
    "name": "Глория Джинс - Gloria Jeans",
    "address": "Харьковская ул., 4, Новошахтинск",
    "okved_code": "14.13",
    "okved_name": "Производство прочей верхней одежды",
    "city": "Новошахтинск",
    "location": "47.767 39.942",
    "preds": 0.0759943527,
    "target": 0
  },
  {
    "name": "Глория Джинс - Gloria Jeans",
    "address": "Харьковская ул., 4, Новошахтинск",
    "okved_code": "14.13",
    "okved_name": "Производство прочей верхней одежды",
    "city": "Новошахтинск",
    "location": "47.767 39.942",
    "preds": 0.0759943527,
    "target": 0
  },
  {
    "name": "Глория Джинс - Gloria Jeans",
    "address": "Харьковская ул., 4, Новошахтинск | Базарная ул., 33А, Новошахтинск",
    "okved_code": "14.13",
    "okved_name": "Производство прочей верхней одежды",
    "city": "Новошахтинск",
    "location": "47.754 39.933",
    "preds": 0.0759943527,
    "target": 0
  },
  {
    "name": "Глория Джинс - Gloria Jeans",
    "address": "Харьковская ул., 4, Новошахтинск | Базарная ул., 33А, Новошахтинск",
    "okved_code": "14.13",
    "okved_name": "Производство прочей верхней одежды",
    "city": "Новошахтинск",
    "location": "47.754 39.933",
    "preds": 0.0759943527,
    "target": 0
  },
  {
    "name": "Глория Джинс - Gloria Jeans",
    "address": "ул. Кирова, 13Б, Батайск | Кирова, 13Б",
    "okved_code": "14.13",
    "okved_name": "Производство прочей верхней одежды",
    "city": "Батайск",
    "location": "47.137 39.748",
    "preds": 0.0759943527,
    "target": 0
  },
  {
    "name": "Глория Джинс",
    "address": "улица Ворошилова, 12",
    "okved_code": "14.13",
    "okved_name": "Производство прочей верхней одежды",
    "city": "Каменск-Шахтинский",
    "location": "48.317 40.267",
    "preds": 0.0759943527,
    "target": 0
  },
  {
    "name": "Глория Джинс - Gloria Jeans",
    "address": "ул. Ворошилова, 12, Каменск-Шахтинский",
    "okved_code": "14.13",
    "okved_name": "Производство прочей верхней одежды",
    "city": "Каменск-Шахтинский",
    "location": "48.317 40.267",
    "preds": 0.0759943527,
    "target": 0
  },
  {
    "name": "Глория Джинс - Gloria Jeans",
    "address": "ул. Ворошилова, 12, Каменск-Шахтинский",
    "okved_code": "14.13",
    "okved_name": "Производство прочей верхней одежды",
    "city": "Каменск-Шахтинский",
    "location": "48.317 40.267",
    "preds": 0.0759943527,
    "target": 0
  },
  {
    "name": "Глория Джинс",
    "address": "улица Кирова, 13Б",
    "okved_code": "14.13",
    "okved_name": "Производство прочей верхней одежды",
    "city": "Батайск",
    "location": "47.137 39.748",
    "preds": 0.0759943527,
    "target": 0
  },
  {
    "name": "Глория Джинс",
    "address": "улица Ворошилова, 12",
    "okved_code": "14.13",
    "okved_name": "Производство прочей верхней одежды",
    "city": "Каменск-Шахтинский",
    "location": "48.317 40.267",
    "preds": 0.0759943527,
    "target": 0
  },
  {
    "name": "Глория Джинс - Gloria Jeans",
    "address": "ул. Ворошилова, 12, Каменск-Шахтинский",
    "okved_code": "14.13",
    "okved_name": "Производство прочей верхней одежды",
    "city": "Каменск-Шахтинский",
    "location": "48.317 40.267",
    "preds": 0.0759943527,
    "target": 0
  },
  {
    "name": "Gloria Jeans",
    "address": "Базарная ул., 33А, Новошахтинск | Харьковская ул., 4, Новошахтинск",
    "okved_code": "14.13",
    "okved_name": "Производство прочей верхней одежды",
    "city": "Новошахтинск",
    "location": "47.754 39.933",
    "preds": 0.0759943527,
    "target": 0
  },
  {
    "name": "Глория Джинс - Gloria Jeans",
    "address": "улица Максима Горького, 11",
    "okved_code": "14.13",
    "okved_name": "Производство прочей верхней одежды",
    "city": "Белая Калитва",
    "location": "48.283 41.048",
    "preds": 0.0759943527,
    "target": 0
  },
  {
    "name": "Глория Джинс",
    "address": "улица Кирова, 13Б",
    "okved_code": "14.13",
    "okved_name": "Производство прочей верхней одежды",
    "city": "Батайск",
    "location": "47.137 39.748",
    "preds": 0.0759943527,
    "target": 0
  },
  {
    "name": "Глория Джинс - Gloria Jeans",
    "address": "улица Максима Горького, 11",
    "okved_code": "14.13",
    "okved_name": "Производство прочей верхней одежды",
    "city": "Белая Калитва",
    "location": "48.283 41.048",
    "preds": 0.0759943527,
    "target": 0
  },
  {
    "name": "Глория Джинс - Gloria Jeans",
    "address": "улица Максима Горького, 11",
    "okved_code": "14.13",
    "okved_name": "Производство прочей верхней одежды",
    "city": "Белая Калитва",
    "location": "48.283 41.048",
    "preds": 0.0759943527,
    "target": 0
  },
  {
    "name": "Глория Джинс - Gloria Jeans",
    "address": "площадь Мира, 7, Таганрог",
    "okved_code": "14.13",
    "okved_name": "Производство прочей верхней одежды",
    "city": "Таганрог",
    "location": "47.218 38.899",
    "preds": 0.0759943527,
    "target": 0
  },
  {
    "name": "Глория Джинс - Gloria Jeans",
    "address": "площадь Мира, 7, Таганрог",
    "okved_code": "14.13",
    "okved_name": "Производство прочей верхней одежды",
    "city": "Таганрог",
    "location": "47.218 38.899",
    "preds": 0.0759943527,
    "target": 0
  },
  {
    "name": "Глория Джинс - Gloria Jeans",
    "address": "площадь Мира, 7, Таганрог",
    "okved_code": "14.13",
    "okved_name": "Производство прочей верхней одежды",
    "city": "Таганрог",
    "location": "47.218 38.899",
    "preds": 0.0759943527,
    "target": 0
  },
  {
    "name": "Gloria Jeans, сеть магазинов",
    "address": "Кирова, 13Б",
    "okved_code": "14.13",
    "okved_name": "Производство прочей верхней одежды",
    "city": "Батайск",
    "location": "47.137 39.748",
    "preds": 0.0759943527,
    "target": 0
  },
  {
    "name": "Глория Джинс - Gloria Jeans",
    "address": "Московская ул., 12, Новочеркасск",
    "okved_code": "14.13",
    "okved_name": "Производство прочей верхней одежды",
    "city": "Новочеркасск",
    "location": "47.413 40.099",
    "preds": 0.0759943527,
    "target": 0
  },
  {
    "name": "Глория Джинс - Gloria Jeans",
    "address": "ул. Шевченко, 125, Шахты | ул. Шевченко, 82В, Шахты",
    "okved_code": "14.13",
    "okved_name": "Производство прочей верхней одежды",
    "city": "Шахты",
    "location": "47.707 40.216",
    "preds": 0.0759943527,
    "target": 0
  },
  {
    "name": "Глория Джинс - Gloria Jeans",
    "address": "Московская ул., 12, Новочеркасск",
    "okved_code": "14.13",
    "okved_name": "Производство прочей верхней одежды",
    "city": "Новочеркасск",
    "location": "47.413 40.099",
    "preds": 0.0759943527,
    "target": 0
  },
  {
    "name": "Глория Джинс - Gloria Jeans",
    "address": "ул. Шевченко, 125, Шахты | ул. Шевченко, 82В, Шахты",
    "okved_code": "14.13",
    "okved_name": "Производство прочей верхней одежды",
    "city": "Шахты",
    "location": "47.707 40.216",
    "preds": 0.0759943527,
    "target": 0
  },
  {
    "name": "Gloria Jeans, сеть магазинов",
    "address": "Аксайский проспект, 23",
    "okved_code": "14.13",
    "okved_name": "Производство прочей верхней одежды",
    "city": "Аксай",
    "location": "47.290 39.847",
    "preds": 0.0759943527,
    "target": 0
  },
  {
    "name": "Gloria Jeans, сеть магазинов",
    "address": "Сельмаш проспект, 20 / Селиванова, 51 - 1 этаж | Большая Садовая, 68 / Семашко переулок, 40 - 1 этаж | Михаила Нагибина проспект, 32/2 / Омская, 2Б - 2 этаж | Михаила Нагибина проспект, 17 - 2 этаж, 2 уровень | Малиновского, 25 - 1 этаж | Волкова, 6 - цокольный этаж",
    "okved_code": "14.13",
    "okved_name": "Производство прочей верхней одежды",
    "city": "Ростов-на-Дону",
    "location": "47.282 39.711",
    "preds": 0.0759943527,
    "target": 0
  },
  {
    "name": "Глория Джинс - Gloria Jeans",
    "address": "просп. Михаила Нагибина, 17, Ростов-на-Дону | Сельмаш проспект, 20 / Селиванова, 51 - 1 этаж | Омская ул., 2К, Ростов-на-Дону | Большая Садовая, 68 / Семашко переулок, 40 - 1 этаж | Михаила Нагибина проспект, 32/2 / Омская, 2Б - 2 этаж | Михаила Нагибина проспект, 17 - 2 этаж, 2 уровень | Малиновского, 25 - 1 этаж | Волкова, 6 - цокольный этаж",
    "okved_code": "14.13",
    "okved_name": "Производство прочей верхней одежды",
    "city": "Ростов-на-Дону",
    "location": "47.282 39.711",
    "preds": 0.0759943527,
    "target": 0
  },
  {
    "name": "Глория Джинс - Gloria Jeans",
    "address": "улица Максима Горького, 11",
    "okved_code": "14.13",
    "okved_name": "Производство прочей верхней одежды",
    "city": "Белая Калитва",
    "location": "48.283 41.048",
    "preds": 0.0759943527,
    "target": 0
  },
  {
    "name": "Глория Джинс - Gloria Jeans",
    "address": "Московская ул., 12, Новочеркасск",
    "okved_code": "14.13",
    "okved_name": "Производство прочей верхней одежды",
    "city": "Новочеркасск",
    "location": "47.413 40.099",
    "preds": 0.0759943527,
    "target": 0
  },
  {
    "name": "Глория Джинс - Gloria Jeans",
    "address": "ул. Льва Толстого, 46А, Миллерово",
    "okved_code": "14.13",
    "okved_name": "Производство прочей верхней одежды",
    "city": "Миллерово",
    "location": "48.926 40.402",
    "preds": 0.0759943527,
    "target": 0
  },
  {
    "name": "Глория Джинс - Gloria Jeans",
    "address": "ул. Льва Толстого, 46А, Миллерово",
    "okved_code": "14.13",
    "okved_name": "Производство прочей верхней одежды",
    "city": "Миллерово",
    "location": "48.926 40.402",
    "preds": 0.0759943527,
    "target": 0
  },
  {
    "name": "Глория Джинс - Gloria Jeans",
    "address": "ул. Льва Толстого, 46А, Миллерово",
    "okved_code": "14.13",
    "okved_name": "Производство прочей верхней одежды",
    "city": "Миллерово",
    "location": "48.926 40.402",
    "preds": 0.0759943527,
    "target": 0
  },
  {
    "name": "Глория Джинс - Gloria Jeans",
    "address": "Московская ул., 12, Новочеркасск",
    "okved_code": "14.13",
    "okved_name": "Производство прочей верхней одежды",
    "city": "Новочеркасск",
    "location": "47.413 40.099",
    "preds": 0.0759943527,
    "target": 0
  },
  {
    "name": "Глория Джинс - Gloria Jeans",
    "address": "площадь Мира, 7, Таганрог",
    "okved_code": "14.13",
    "okved_name": "Производство прочей верхней одежды",
    "city": "Таганрог",
    "location": "47.218 38.899",
    "preds": 0.0759943527,
    "target": 0
  },
  {
    "name": "Глория Джинс - Gloria Jeans",
    "address": "площадь Мира, 7, Таганрог",
    "okved_code": "14.13",
    "okved_name": "Производство прочей верхней одежды",
    "city": "Таганрог",
    "location": "47.218 38.899",
    "preds": 0.0759943527,
    "target": 0
  },
  {
    "name": "Глория Джинс - Gloria Jeans",
    "address": "ул. Шевченко, 125, Шахты | ул. Шевченко, 82В, Шахты",
    "okved_code": "14.13",
    "okved_name": "Производство прочей верхней одежды",
    "city": "Шахты",
    "location": "47.707 40.216",
    "preds": 0.0759943527,
    "target": 0
  },
  {
    "name": "Gloria Jeans, сеть магазинов",
    "address": "Аксайский проспект, 23",
    "okved_code": "14.13",
    "okved_name": "Производство прочей верхней одежды",
    "city": "Аксай",
    "location": "47.290 39.847",
    "preds": 0.0759943527,
    "target": 0
  },
  {
    "name": "Gloria Jeans, сеть магазинов",
    "address": "Аксайский проспект, 23",
    "okved_code": "14.13",
    "okved_name": "Производство прочей верхней одежды",
    "city": "Аксай",
    "location": "47.290 39.847",
    "preds": 0.0759943527,
    "target": 0
  },
  {
    "name": "Глория Джинс - Gloria Jeans",
    "address": "Морская улица, 86 | просп. Строителей, 21, Волгодонск",
    "okved_code": "14.13",
    "okved_name": "Производство прочей верхней одежды",
    "city": "Волгодонск",
    "location": "47.517 42.159",
    "preds": 0.0759943527,
    "target": 0
  },
  {
    "name": "Глория Джинс - Gloria Jeans",
    "address": "Морская ул., 86, Волгодонск | просп. Строителей, 21, Волгодонск",
    "okved_code": "14.13",
    "okved_name": "Производство прочей верхней одежды",
    "city": "Волгодонск",
    "location": "47.517 42.159",
    "preds": 0.0759943527,
    "target": 0
  },
  {
    "name": "Глория Джинс - Gloria Jeans",
    "address": "Аксайский проспект, 23",
    "okved_code": "14.13",
    "okved_name": "Производство прочей верхней одежды",
    "city": "Аксай",
    "location": "47.290 39.847",
    "preds": 0.0759943527,
    "target": 0
  },
  {
    "name": "Глория Джинс - Gloria Jeans",
    "address": "Морская улица, 86 | просп. Строителей, 21, Волгодонск",
    "okved_code": "14.13",
    "okved_name": "Производство прочей верхней одежды",
    "city": "Волгодонск",
    "location": "47.517 42.159",
    "preds": 0.0759943527,
    "target": 0
  },
  {
    "name": "Gloria Jeans, сеть магазинов",
    "address": "Сельмаш проспект, 20 / Селиванова, 51 - 1 этаж",
    "okved_code": "14.13",
    "okved_name": "Производство прочей верхней одежды",
    "city": "Ростов-на-Дону",
    "location": "47.250 39.765",
    "preds": 0.0759943527,
    "target": 0
  },
  {
    "name": "ИКЦ Мысль НГТУ, производство",
    "address": "Осенний тупик, 10",
    "okved_code": "71.20",
    "okved_name": "Технические испытания, исследования, анализ и сертификация",
    "city": "Новочеркасск",
    "location": "47.414 40.063",
    "preds": 0.6835809858,
    "target": 1
  },
  {
    "name": "ИКЦ Мысль НГТУ, производство",
    "address": "Осенний тупик, 10",
    "okved_code": "71.20",
    "okved_name": "Технические испытания, исследования, анализ и сертификация",
    "city": "Новочеркасск",
    "location": "47.414 40.063",
    "preds": 0.6835809858,
    "target": 1
  },
  {
    "name": "Инженерно-консультационный центр Мысль НГТУ, офис",
    "address": "Троицкая ул., 88, Новочеркасск",
    "okved_code": "71.20",
    "okved_name": "Технические испытания, исследования, анализ и сертификация",
    "city": "Новочеркасск",
    "location": "47.417 40.081",
    "preds": 0.6835809858,
    "target": 1
  },
  {
    "name": "Инженерно-консультационный центр Мысль НГТУ, офис",
    "address": "Троицкая ул., 88, Новочеркасск",
    "okved_code": "71.20",
    "okved_name": "Технические испытания, исследования, анализ и сертификация",
    "city": "Новочеркасск",
    "location": "47.417 40.081",
    "preds": 0.6835809858,
    "target": 1
  },
  {
    "name": "Инженерно-консультационный центр Мысль НГТУ, офис",
    "address": "Троицкая ул., 88, Новочеркасск",
    "okved_code": "71.20",
    "okved_name": "Технические испытания, исследования, анализ и сертификация",
    "city": "Новочеркасск",
    "location": "47.417 40.081",
    "preds": 0.6835809858,
    "target": 1
  },
  {
    "name": "Инженерно-консультационный центр Мысль НГТУ, офис",
    "address": "Троицкая ул., 88, Новочеркасск",
    "okved_code": "71.20",
    "okved_name": "Технические испытания, исследования, анализ и сертификация",
    "city": "Новочеркасск",
    "location": "47.417 40.081",
    "preds": 0.6835809858,
    "target": 1
  },
  {
    "name": "Филиал МРСК-Юга-РостовЭнерго",
    "address": "Большая Садовая ул., 49/42, Ростов-на-Дону",
    "okved_code": "35.12",
    "okved_name": "Передача электроэнергии и технологическое присоединение к распределительным электросетям",
    "city": "Ростов-на-Дону",
    "location": "47.222 39.713",
    "preds": 0.6680617566,
    "target": 1
  },
  {
    "name": "Восточные электрические сети",
    "address": "ул. Гришина, 22, Цимлянск",
    "okved_code": "35.12",
    "okved_name": "Передача электроэнергии и технологическое присоединение к распределительным электросетям",
    "city": "Цимлянск",
    "location": "47.641 42.104",
    "preds": 0.6680617566,
    "target": 1
  },
  {
    "name": "Филиал МРСК Юга Ростовэнерго",
    "address": "Будённовская ул., 281, Новочеркасск",
    "okved_code": "35.12",
    "okved_name": "Передача электроэнергии и технологическое присоединение к распределительным электросетям",
    "city": "Новочеркасск",
    "location": "47.426 40.039",
    "preds": 0.6680617566,
    "target": 1
  },
  {
    "name": "МРСК Юга",
    "address": "ул. Города Волос, 73/68, Ростов-на-Дону",
    "okved_code": "35.12",
    "okved_name": "Передача электроэнергии и технологическое присоединение к распределительным электросетям",
    "city": "Ростов-на-Дону",
    "location": "47.232 39.726",
    "preds": 0.6680617566,
    "target": 1
  },
  {
    "name": "Юго-восточные Электрические Сети Филиала Ростовэнерго, производственное отделение",
    "address": "ул. Скирды, 18, Сальск",
    "okved_code": "35.12",
    "okved_name": "Передача электроэнергии и технологическое присоединение к распределительным электросетям",
    "city": "Сальск",
    "location": "46.493 41.527",
    "preds": 0.6680617566,
    "target": 1
  },
  {
    "name": "СО ЕЭС, АО, Региональное диспетчерское управление энергосистем, Ростовский филиал",
    "address": "Красноармейская, 192",
    "okved_code": "35.12",
    "okved_name": "Передача электроэнергии и технологическое присоединение к распределительным электросетям",
    "city": "Ростов-на-Дону",
    "location": "47.229 39.721",
    "preds": 0.6680617566,
    "target": 1
  },
  {
    "name": "По Юзес Ростовэнерго",
    "address": "ул. Дзержинского, 144, Таганрог",
    "okved_code": "35.12",
    "okved_name": "Передача электроэнергии и технологическое присоединение к распределительным электросетям",
    "city": "Таганрог",
    "location": "47.243 38.918",
    "preds": 0.6680617566,
    "target": 1
  },
  {
    "name": "По Юзес Ростовэнерго",
    "address": "ул. Дзержинского, 144, Таганрог",
    "okved_code": "35.12",
    "okved_name": "Передача электроэнергии и технологическое присоединение к распределительным электросетям",
    "city": "Таганрог",
    "location": "47.243 38.918",
    "preds": 0.6680617566,
    "target": 1
  },
  {
    "name": "Филиал МРСК-Юга-РостовЭнерго",
    "address": "Большая Садовая ул., 49/42, Ростов-на-Дону",
    "okved_code": "35.12",
    "okved_name": "Передача электроэнергии и технологическое присоединение к распределительным электросетям",
    "city": "Ростов-на-Дону",
    "location": "47.222 39.713",
    "preds": 0.6680617566,
    "target": 1
  },
  {
    "name": "Ростовэнерго, ПАО МРСК Юга",
    "address": "Большая Садовая, 49 / Семашко переулок, 42 | Футбольная, 9 | Краснодарская 2-я, 147 | Краснодарская 2-я, 147Б - 1 этаж",
    "okved_code": "35.12",
    "okved_name": "Передача электроэнергии и технологическое присоединение к распределительным электросетям",
    "city": "Ростов-на-Дону",
    "location": "47.222 39.714",
    "preds": 0.6680617566,
    "target": 1
  },
  {
    "name": "Ростовэнерго, ПАО МРСК Юга",
    "address": "Западная, 35Б",
    "okved_code": "35.12",
    "okved_name": "Передача электроэнергии и технологическое присоединение к распределительным электросетям",
    "city": "Аксай",
    "location": "47.270 39.854",
    "preds": 0.6680617566,
    "target": 1
  },
  {
    "name": "МРСК Юга Ростовэнерго",
    "address": "пер. Семашко, 48-50, Ростов-на-Дону",
    "okved_code": "35.12",
    "okved_name": "Передача электроэнергии и технологическое присоединение к распределительным электросетям",
    "city": "Ростов-на-Дону",
    "location": "47.223 39.713",
    "preds": 0.6680617566,
    "target": 1
  },
  {
    "name": "Восточные электрические сети",
    "address": "ул. Гришина, 22, Цимлянск",
    "okved_code": "35.12",
    "okved_name": "Передача электроэнергии и технологическое присоединение к распределительным электросетям",
    "city": "Цимлянск",
    "location": "47.641 42.104",
    "preds": 0.6680617566,
    "target": 1
  },
  {
    "name": "НПК АС",
    "address": "Технологический пер., 8И, лит.М, Ростов-на-Дону",
    "okved_code": "26.51.7",
    "okved_name": "Производство приборов и аппаратуры для автоматического регулирования или управления",
    "city": "Ростов-на-Дону",
    "location": "47.269 39.691",
    "preds": 0.6332498037,
    "target": 1
  },
  {
    "name": "Меотида",
    "address": "ул. Розы Люксембург, 13А, Таганрог | Греческая ул., 67, Таганрог | Театральная ул., 38, Таганрог",
    "okved_code": "46.35",
    "okved_name": "Торговля оптовая табачными изделиями",
    "city": "Таганрог",
    "location": "47.212 38.938",
    "preds": 0.6172809327,
    "target": 1
  },
  {
    "name": "Экофес",
    "address": "Баклановский проспект, 200В",
    "okved_code": "27.90",
    "okved_name": "Производство прочего электрического оборудования",
    "city": "Новочеркасск",
    "location": "47.423 40.041",
    "preds": 0.6140504791,
    "target": 1
  },
  {
    "name": "Клевер, аптека",
    "address": "Малиновского, 78в - 1 этаж",
    "okved_code": "28.30.5",
    "okved_name": "Производство машин для уборки урожая",
    "city": "Ростов-на-Дону",
    "location": "47.235 39.615",
    "preds": 0.613860823,
    "target": 1
  },
  {
    "name": "Клевер",
    "address": "Морская улица, 64",
    "okved_code": "28.30.5",
    "okved_name": "Производство машин для уборки урожая",
    "city": "Волгодонск",
    "location": "47.521 42.154",
    "preds": 0.613860823,
    "target": 1
  },
  {
    "name": "Клевер",
    "address": "ул. Крылова, 1, Новочеркасск",
    "okved_code": "28.30.5",
    "okved_name": "Производство машин для уборки урожая",
    "city": "Новочеркасск",
    "location": "47.423 40.082",
    "preds": 0.613860823,
    "target": 1
  },
  {
    "name": "Клевер",
    "address": "Соборный пер., 94/139, Ростов-на-Дону | улица Текучёва, 139",
    "okved_code": "28.30.5",
    "okved_name": "Производство машин для уборки урожая",
    "city": "Ростов-на-Дону",
    "location": "47.235 39.704",
    "preds": 0.613860823,
    "target": 1
  },
  {
    "name": "Клев",
    "address": "ул. Матросова, 212, Морозовск",
    "okved_code": "28.30.5",
    "okved_name": "Производство машин для уборки урожая",
    "city": "Морозовск",
    "location": "48.353 41.824",
    "preds": 0.613860823,
    "target": 1
  },
  {
    "name": "Клевер, АО, промышленное предприятие",
    "address": "50 лет Ростсельмаша, 2-6/22 лит Б",
    "okved_code": "28.30.5",
    "okved_name": "Производство машин для уборки урожая",
    "city": "Ростов-на-Дону",
    "location": "47.270 39.763",
    "preds": 0.613860823,
    "target": 1
  },
  {
    "name": "Клевер",
    "address": "улица 50-летия Ростсельмаша, 2-6/22",
    "okved_code": "28.30.5",
    "okved_name": "Производство машин для уборки урожая",
    "city": "Ростов-на-Дону",
    "location": "47.270 39.762",
    "preds": 0.613860823,
    "target": 1
  },
  {
    "name": "Клевер",
    "address": "улица 50-летия Ростсельмаша, 2-6/22",
    "okved_code": "28.30.5",
    "okved_name": "Производство машин для уборки урожая",
    "city": "Ростов-на-Дону",
    "location": "47.270 39.762",
    "preds": 0.613860823,
    "target": 1
  },
  {
    "name": "Клевер",
    "address": "улица 50-летия Ростсельмаша, 2-6/22",
    "okved_code": "28.30.5",
    "okved_name": "Производство машин для уборки урожая",
    "city": "Ростов-на-Дону",
    "location": "47.270 39.762",
    "preds": 0.613860823,
    "target": 1
  },
  {
    "name": "Клевер",
    "address": "Лермонтовская ул., 93/106, Ростов-на-Дону",
    "okved_code": "28.30.5",
    "okved_name": "Производство машин для уборки урожая",
    "city": "Ростов-на-Дону",
    "location": "47.230 39.709",
    "preds": 0.613860823,
    "target": 1
  },
  {
    "name": "Миллеровский филиал ОАО Астон",
    "address": "Россия, Ростовская область, Миллерово",
    "okved_code": "10.41.5",
    "okved_name": "Производство рафинированных растительных масел и их фракций",
    "city": "Миллерово",
    "location": "48.913 40.409",
    "preds": 0.597611905,
    "target": 1
  },
  {
    "name": "Астон, филиал",
    "address": "Солнечная ул., 1, Морозовск",
    "okved_code": "10.41.5",
    "okved_name": "Производство рафинированных растительных масел и их фракций",
    "city": "Морозовск",
    "location": "48.340 41.810",
    "preds": 0.597611905,
    "target": 1
  },
  {
    "name": "Астон, производственно-торговая фирма",
    "address": "Суворова, 91 - 12 этаж | Луговая 1-я, 3Б",
    "okved_code": "10.41.5",
    "okved_name": "Производство рафинированных растительных масел и их фракций",
    "city": "Ростов-на-Дону",
    "location": "47.227 39.732",
    "preds": 0.597611905,
    "target": 1
  },
  {
    "name": "Продукты",
    "address": "ул. Ленина, 257, Морозовск | улица Кирова, 83 | улица Ворошилова, 308 | улица Ленина, 269 | ул. Парижской Коммуны, 20, Морозовск",
    "okved_code": "10.41.5",
    "okved_name": "Производство рафинированных растительных масел и их фракций",
    "city": "Морозовск",
    "location": "48.351 41.826",
    "preds": 0.597611905,
    "target": 1
  },
  {
    "name": "Астон",
    "address": "Артиллерийская ул., 3, Миллерово",
    "okved_code": "10.41.5",
    "okved_name": "Производство рафинированных растительных масел и их фракций",
    "city": "Миллерово",
    "location": "48.913 40.409",
    "preds": 0.597611905,
    "target": 1
  },
  {
    "name": "Астон",
    "address": "Артиллерийская ул., 3, Миллерово",
    "okved_code": "10.41.5",
    "okved_name": "Производство рафинированных растительных масел и их фракций",
    "city": "Миллерово",
    "location": "48.913 40.409",
    "preds": 0.597611905,
    "target": 1
  },
  {
    "name": "Астон",
    "address": "Артиллерийская ул., 3, Миллерово",
    "okved_code": "10.41.5",
    "okved_name": "Производство рафинированных растительных масел и их фракций",
    "city": "Миллерово",
    "location": "48.913 40.409",
    "preds": 0.597611905,
    "target": 1
  },
  {
    "name": "Миллеровский филиал ОАО Астон",
    "address": "Россия, Ростовская область, Миллерово",
    "okved_code": "10.41.5",
    "okved_name": "Производство рафинированных растительных масел и их фракций",
    "city": "Миллерово",
    "location": "48.913 40.409",
    "preds": 0.597611905,
    "target": 1
  },
  {
    "name": "Астон, производственно-торговая фирма",
    "address": "Суворова, 91 - 12 этаж | Луговая 1-я, 3Б",
    "okved_code": "10.41.5",
    "okved_name": "Производство рафинированных растительных масел и их фракций",
    "city": "Ростов-на-Дону",
    "location": "47.227 39.732",
    "preds": 0.597611905,
    "target": 1
  },
  {
    "name": "Астон",
    "address": "Россия, Ростовская область, Морозовский район, хутор Морозов, улица Солнечная, 1",
    "okved_code": "10.41.5",
    "okved_name": "Производство рафинированных растительных масел и их фракций",
    "city": "Морозовск",
    "location": "48.342 41.864",
    "preds": 0.597611905,
    "target": 1
  },
  {
    "name": "Миллеровский филиал ОАО Астон",
    "address": "Россия, Ростовская область, Миллерово",
    "okved_code": "10.41.5",
    "okved_name": "Производство рафинированных растительных масел и их фракций",
    "city": "Миллерово",
    "location": "48.913 40.409",
    "preds": 0.597611905,
    "target": 1
  },
  {
    "name": "Батайские межрайонные электрические сети, АО Донэнерго",
    "address": "Речная, 114",
    "okved_code": "35.12",
    "okved_name": "Передача электроэнергии и технологическое присоединение к распределительным электросетям",
    "city": "Батайск",
    "location": "47.136 39.767",
    "preds": 0.5563761417,
    "target": 1
  },
  {
    "name": "Служба регулирования тарифов Администрации муниципального образования г. Батайск",
    "address": "площадь Ленина, 3, Батайск",
    "okved_code": "35.12",
    "okved_name": "Передача электроэнергии и технологическое присоединение к распределительным электросетям",
    "city": "Батайск",
    "location": "47.139 39.745",
    "preds": 0.5563761417,
    "target": 1
  },
  {
    "name": "Аварийная Служба Электрических Сетей",
    "address": "ул. Луначарского, 20, Миллерово",
    "okved_code": "35.12",
    "okved_name": "Передача электроэнергии и технологическое присоединение к распределительным электросетям",
    "city": "Миллерово",
    "location": "48.925 40.391",
    "preds": 0.5563761417,
    "target": 1
  },
  {
    "name": "Донэнерго Тепловые сети Аварийная служба",
    "address": "Прокатная ул., 4А, Шахты",
    "okved_code": "35.12",
    "okved_name": "Передача электроэнергии и технологическое присоединение к распределительным электросетям",
    "city": "Шахты",
    "location": "47.720 40.235",
    "preds": 0.5563761417,
    "target": 1
  },
  {
    "name": "Донэнерго, Тепловые Сети",
    "address": "ул. Коломийцева, 128, Сальск",
    "okved_code": "35.12",
    "okved_name": "Передача электроэнергии и технологическое присоединение к распределительным электросетям",
    "city": "Сальск",
    "location": "46.484 41.531",
    "preds": 0.5563761417,
    "target": 1
  },
  {
    "name": "Батайский район тепловых сетей, Донэнерго Тепловые сети",
    "address": "Орджоникидзе, 122",
    "okved_code": "35.12",
    "okved_name": "Передача электроэнергии и технологическое присоединение к распределительным электросетям",
    "city": "Батайск",
    "location": "47.114 39.739",
    "preds": 0.5563761417,
    "target": 1
  },
  {
    "name": "Аварийная Служба Тепловых Сетей",
    "address": "Песчаная ул., 8, Миллерово",
    "okved_code": "35.12",
    "okved_name": "Передача электроэнергии и технологическое присоединение к распределительным электросетям",
    "city": "Миллерово",
    "location": "48.926 40.381",
    "preds": 0.5563761417,
    "target": 1
  },
  {
    "name": "Донэнерго",
    "address": "просп. Мира, 59, Донецк | Театральный переулок, 3А | проспект Мира, 59 | проспект Ленина, 19А",
    "okved_code": "35.12",
    "okved_name": "Передача электроэнергии и технологическое присоединение к распределительным электросетям",
    "city": "Донецк",
    "location": "48.340 39.952",
    "preds": 0.5563761417,
    "target": 1
  },
  {
    "name": "Донэнерго",
    "address": "проспект Ленина, 3А | Театральный пер., 3А, Донецк",
    "okved_code": "35.12",
    "okved_name": "Передача электроэнергии и технологическое присоединение к распределительным электросетям",
    "city": "Донецк",
    "location": "48.337 39.946",
    "preds": 0.5563761417,
    "target": 1
  },
  {
    "name": "Донэнерго, АО",
    "address": "Пушкинская, 162",
    "okved_code": "35.12",
    "okved_name": "Передача электроэнергии и технологическое присоединение к распределительным электросетям",
    "city": "Ростов-на-Дону",
    "location": "47.227 39.728",
    "preds": 0.5563761417,
    "target": 1
  },
  {
    "name": "Аварийная Служба Электрических Сетей",
    "address": "ул. Котовского, 15, Каменск-Шахтинский",
    "okved_code": "35.12",
    "okved_name": "Передача электроэнергии и технологическое присоединение к распределительным электросетям",
    "city": "Каменск-Шахтинский",
    "location": "48.307 40.276",
    "preds": 0.5563761417,
    "target": 1
  },
  {
    "name": "Филиал Миллеровские межрайонные электрические сети",
    "address": "Ольховский пер., 8, Миллерово",
    "okved_code": "35.12",
    "okved_name": "Передача электроэнергии и технологическое присоединение к распределительным электросетям",
    "city": "Миллерово",
    "location": "48.924 40.393",
    "preds": 0.5563761417,
    "target": 1
  },
  {
    "name": "Донэнерго",
    "address": "ул. Котовского, 15, Каменск-Шахтинский",
    "okved_code": "35.12",
    "okved_name": "Передача электроэнергии и технологическое присоединение к распределительным электросетям",
    "city": "Каменск-Шахтинский",
    "location": "48.307 40.276",
    "preds": 0.5563761417,
    "target": 1
  },
  {
    "name": "Донэнерго",
    "address": "ул. Химиков, 6, Волгодонск",
    "okved_code": "35.12",
    "okved_name": "Передача электроэнергии и технологическое присоединение к распределительным электросетям",
    "city": "Волгодонск",
    "location": "47.527 42.134",
    "preds": 0.5563761417,
    "target": 1
  },
  {
    "name": "Донецкий район тепловых сетей",
    "address": "Театральный пер., 3А, Донецк",
    "okved_code": "35.12",
    "okved_name": "Передача электроэнергии и технологическое присоединение к распределительным электросетям",
    "city": "Донецк",
    "location": "48.337 39.946",
    "preds": 0.5563761417,
    "target": 1
  },
  {
    "name": "Комиссия по делам несовершеннолетних, Администрация г. Батайска",
    "address": "Ленина площадь, 3 - 406 кабинет, 4 этаж",
    "okved_code": "35.12",
    "okved_name": "Передача электроэнергии и технологическое присоединение к распределительным электросетям",
    "city": "Батайск",
    "location": "47.139 39.745",
    "preds": 0.5563761417,
    "target": 1
  },
  {
    "name": "Аварийная Служба Электрических Сетей",
    "address": "ул. Новостройка, 81, Сальск",
    "okved_code": "35.12",
    "okved_name": "Передача электроэнергии и технологическое присоединение к распределительным электросетям",
    "city": "Сальск",
    "location": "46.485 41.567",
    "preds": 0.5563761417,
    "target": 1
  },
  {
    "name": "Аварийная Служба Электрических Сетей",
    "address": "Киевская ул., 84, Гуково",
    "okved_code": "35.12",
    "okved_name": "Передача электроэнергии и технологическое присоединение к распределительным электросетям",
    "city": "Гуково",
    "location": "48.022 39.864",
    "preds": 0.5563761417,
    "target": 1
  },
  {
    "name": "Батайские межрайонные электрические сети, АО Донэнерго",
    "address": "Кирова, 14 - 1 этаж | Речная, 114",
    "okved_code": "35.12",
    "okved_name": "Передача электроэнергии и технологическое присоединение к распределительным электросетям",
    "city": "Батайск",
    "location": "47.138 39.752",
    "preds": 0.5563761417,
    "target": 1
  },
  {
    "name": "Филиал ОАО Донэнерго Волгодонские МЭС",
    "address": "ул. Химиков, 6, Волгодонск",
    "okved_code": "35.12",
    "okved_name": "Передача электроэнергии и технологическое присоединение к распределительным электросетям",
    "city": "Волгодонск",
    "location": "47.527 42.134",
    "preds": 0.5563761417,
    "target": 1
  },
  {
    "name": "Донэнерго",
    "address": "Морской пер., 4, Сальск | ул. Крупской, 139, Сальск | Кузнечная ул., 102А, Сальск",
    "okved_code": "35.12",
    "okved_name": "Передача электроэнергии и технологическое присоединение к распределительным электросетям",
    "city": "Сальск",
    "location": "46.470 41.525",
    "preds": 0.5563761417,
    "target": 1
  },
  {
    "name": "Донэнерго",
    "address": "ул. Мира, 35А, Азов",
    "okved_code": "35.12",
    "okved_name": "Передача электроэнергии и технологическое присоединение к распределительным электросетям",
    "city": "Азов",
    "location": "47.107 39.421",
    "preds": 0.5563761417,
    "target": 1
  },
  {
    "name": "СМЭС",
    "address": "Железнодорожная улица, 23 | Россия, Ростовская область, Сальск, Железнодорожная улица",
    "okved_code": "35.12",
    "okved_name": "Передача электроэнергии и технологическое присоединение к распределительным электросетям",
    "city": "Сальск",
    "location": "46.473 41.550",
    "preds": 0.5563761417,
    "target": 1
  },
  {
    "name": "Донэнерго",
    "address": "Коммунистическая ул., 262А, Морозовск",
    "okved_code": "35.12",
    "okved_name": "Передача электроэнергии и технологическое присоединение к распределительным электросетям",
    "city": "Морозовск",
    "location": "48.349 41.806",
    "preds": 0.5563761417,
    "target": 1
  },
  {
    "name": "Аварийная Служба Тепловых Сетей",
    "address": "ул. Карла Маркса, 29, поселок ЦОФ, Донецк | Стадионная ул., 99А, Донецк",
    "okved_code": "35.12",
    "okved_name": "Передача электроэнергии и технологическое присоединение к распределительным электросетям",
    "city": "Донецк",
    "location": "48.348 39.958",
    "preds": 0.5563761417,
    "target": 1
  },
  {
    "name": "Зверевский район тепловых сетей",
    "address": "ул. Обухова, 2А, Зверево",
    "okved_code": "35.12",
    "okved_name": "Передача электроэнергии и технологическое присоединение к распределительным электросетям",
    "city": "Зверево",
    "location": "48.032 40.119",
    "preds": 0.5563761417,
    "target": 1
  },
  {
    "name": "Донэнерго-тепловые сети",
    "address": "Комсомольская ул., 113Б, Батайск",
    "okved_code": "35.12",
    "okved_name": "Передача электроэнергии и технологическое присоединение к распределительным электросетям",
    "city": "Батайск",
    "location": "47.129 39.735",
    "preds": 0.5563761417,
    "target": 1
  },
  {
    "name": "Приемная депутата Азовской городской Думы Бурыка Д.В.",
    "address": "Мира, 35а",
    "okved_code": "35.12",
    "okved_name": "Передача электроэнергии и технологическое присоединение к распределительным электросетям",
    "city": "Азов",
    "location": "47.107 39.421",
    "preds": 0.5563761417,
    "target": 1
  },
  {
    "name": "Донэнерго Прэс",
    "address": "Поворотная ул., 2Б, Новочеркасск",
    "okved_code": "35.12",
    "okved_name": "Передача электроэнергии и технологическое присоединение к распределительным электросетям",
    "city": "Новочеркасск",
    "location": "47.454 40.105",
    "preds": 0.5563761417,
    "target": 1
  },
  {
    "name": "Донэнерго",
    "address": "Песчаная ул., 8, Миллерово | ул. Луначарского, 20, Миллерово",
    "okved_code": "35.12",
    "okved_name": "Передача электроэнергии и технологическое присоединение к распределительным электросетям",
    "city": "Миллерово",
    "location": "48.925 40.391",
    "preds": 0.5563761417,
    "target": 1
  },
  {
    "name": "Донэнерго",
    "address": "ул. Ильюшина, 1Б, Шахты | пер. Шишкина, 162, Шахты | просп. Победа Революции, 79, Шахты",
    "okved_code": "35.12",
    "okved_name": "Передача электроэнергии и технологическое присоединение к распределительным электросетям",
    "city": "Шахты",
    "location": "47.725 40.226",
    "preds": 0.5563761417,
    "target": 1
  },
  {
    "name": "Тепловые Сети, Районные",
    "address": "Совхозная ул., 2З, Белая Калитва",
    "okved_code": "35.12",
    "okved_name": "Передача электроэнергии и технологическое присоединение к распределительным электросетям",
    "city": "Белая Калитва",
    "location": "48.156 40.785",
    "preds": 0.5563761417,
    "target": 1
  },
  {
    "name": "Аксайские межрайонные электрические сети, АО Донэнерго",
    "address": "Толпинского, 67",
    "okved_code": "35.12",
    "okved_name": "Передача электроэнергии и технологическое присоединение к распределительным электросетям",
    "city": "Аксай",
    "location": "47.255 39.860",
    "preds": 0.5563761417,
    "target": 1
  },
  {
    "name": "Миллеровское МО ДЭС",
    "address": "Ольховский пер., 8, Миллерово",
    "okved_code": "35.12",
    "okved_name": "Передача электроэнергии и технологическое присоединение к распределительным электросетям",
    "city": "Миллерово",
    "location": "48.924 40.393",
    "preds": 0.5563761417,
    "target": 1
  },
  {
    "name": "Аксайские межрайонные электрические сети, АО Донэнерго",
    "address": "Толпинского, 67 | Маяковского, 13 - 1, 2 этаж",
    "okved_code": "35.12",
    "okved_name": "Передача электроэнергии и технологическое присоединение к распределительным электросетям",
    "city": "Аксай",
    "location": "47.255 39.860",
    "preds": 0.5563761417,
    "target": 1
  },
  {
    "name": "Донэнерго",
    "address": "Совхозная ул., 2, Белая Калитва",
    "okved_code": "35.12",
    "okved_name": "Передача электроэнергии и технологическое присоединение к распределительным электросетям",
    "city": "Белая Калитва",
    "location": "48.158 40.780",
    "preds": 0.5563761417,
    "target": 1
  },
  {
    "name": "Донэнерго, теплосети",
    "address": "ул. Орджоникидзе, 122, Батайск | Речная улица, 114 | ул. Орджоникидзе, 35, Батайск | улица Кирова, 14",
    "okved_code": "35.12",
    "okved_name": "Передача электроэнергии и технологическое присоединение к распределительным электросетям",
    "city": "Батайск",
    "location": "47.136 39.767",
    "preds": 0.5563761417,
    "target": 1
  },
  {
    "name": "Филиал Донэнерго Шмэс КС РЭС",
    "address": "улица Чкалова, 92Б | ул. Чкалова, 92Б, Красный Сулин",
    "okved_code": "35.12",
    "okved_name": "Передача электроэнергии и технологическое присоединение к распределительным электросетям",
    "city": "Красный Сулин",
    "location": "47.900 40.080",
    "preds": 0.5563761417,
    "target": 1
  },
  {
    "name": "Донэнерго, АО",
    "address": "Кривошлыковский переулок, 8 - 1 этаж | Пушкинская, 162 | Мечникова, 41а | Энергетиков переулок, 8 | Араратский переулок, 2/38 | Добровольского, 19а",
    "okved_code": "35.12",
    "okved_name": "Передача электроэнергии и технологическое присоединение к распределительным электросетям",
    "city": "Ростов-на-Дону",
    "location": "47.242 39.766",
    "preds": 0.5563761417,
    "target": 1
  },
  {
    "name": "Азовские межрайонные электрические сети, АО Донэнерго",
    "address": "Мира, 35а",
    "okved_code": "35.12",
    "okved_name": "Передача электроэнергии и технологическое присоединение к распределительным электросетям",
    "city": "Азов",
    "location": "47.107 39.421",
    "preds": 0.5563761417,
    "target": 1
  },
  {
    "name": "Донэнерго, АО",
    "address": "Кривошлыковский переулок, 8 - 1 этаж | Пушкинская, 162 | Мечникова, 41а | Энергетиков переулок, 8 | Араратский переулок, 2/38 | Добровольского, 19а",
    "okved_code": "35.12",
    "okved_name": "Передача электроэнергии и технологическое присоединение к распределительным электросетям",
    "city": "Ростов-на-Дону",
    "location": "47.242 39.766",
    "preds": 0.5563761417,
    "target": 1
  },
  {
    "name": "Донэнерго Тепловые сети Котельная № 35",
    "address": "ул. Мечникова, 3В, Шахты",
    "okved_code": "35.12",
    "okved_name": "Передача электроэнергии и технологическое присоединение к распределительным электросетям",
    "city": "Шахты",
    "location": "47.694 40.240",
    "preds": 0.5563761417,
    "target": 1
  },
  {
    "name": "Электрические Сети, Межрайонные",
    "address": "ул. Советской Конституции, 3А, Новошахтинск",
    "okved_code": "35.12",
    "okved_name": "Передача электроэнергии и технологическое присоединение к распределительным электросетям",
    "city": "Новошахтинск",
    "location": "47.753 39.927",
    "preds": 0.5563761417,
    "target": 1
  },
  {
    "name": "ОЗК-Юг, ООО",
    "address": "Будённовский проспект, 60 - 7 этаж",
    "okved_code": "46.21",
    "okved_name": "Торговля оптовая зерном, необработанным табаком, семенами и кормами для сельскохозяйственных животных",
    "city": "Ростов-на-Дону",
    "location": "47.227 39.705",
    "preds": 0.5142937503,
    "target": 1
  },
  {
    "name": "ОЗК-Юг, ООО",
    "address": "Будённовский проспект, 60 - 7 этаж",
    "okved_code": "46.21",
    "okved_name": "Торговля оптовая зерном, необработанным табаком, семенами и кормами для сельскохозяйственных животных",
    "city": "Ростов-на-Дону",
    "location": "47.227 39.705",
    "preds": 0.5142937503,
    "target": 1
  },
  {
    "name": "Гранит, ПАО, производственное предприятие",
    "address": "Белорусская, 9/7г",
    "okved_code": "26.11.1",
    "okved_name": "Производство электронных вакуумных ламп и трубок и прочих электронных вакуумных приборов",
    "city": "Ростов-на-Дону",
    "location": "47.277 39.762",
    "preds": 0.4720467109,
    "target": 1
  },
  {
    "name": "Информсистема, ООО, научно-производственное предприятие",
    "address": "Пескова, 17а",
    "okved_code": "27.32",
    "okved_name": "Производство прочих проводов и кабелей для электронного и электрического оборудования",
    "city": "Ростов-на-Дону",
    "location": "47.213 39.588",
    "preds": 0.4666674488,
    "target": 1
  },
  {
    "name": "Имидж, центр красоты",
    "address": "Нахичеванский переулок, 38а - 3 этаж",
    "okved_code": "46.46.1",
    "okved_name": "Торговля оптовая фармацевтической продукцией",
    "city": "Ростов-на-Дону",
    "location": "47.228 39.739",
    "preds": 0.4499859394,
    "target": 1
  },
  {
    "name": "Имидж, центр красоты",
    "address": "Нахичеванский переулок, 38а - 3 этаж",
    "okved_code": "46.46.1",
    "okved_name": "Торговля оптовая фармацевтической продукцией",
    "city": "Ростов-на-Дону",
    "location": "47.228 39.739",
    "preds": 0.4499859394,
    "target": 1
  },
  {
    "name": "Имидж, центр красоты",
    "address": "Нахичеванский переулок, 38а - 3 этаж",
    "okved_code": "46.46.1",
    "okved_name": "Торговля оптовая фармацевтической продукцией",
    "city": "Ростов-на-Дону",
    "location": "47.228 39.739",
    "preds": 0.4499859394,
    "target": 1
  },
  {
    "name": "Имидж, центр красоты",
    "address": "Нахичеванский переулок, 38а - 3 этаж",
    "okved_code": "46.46.1",
    "okved_name": "Торговля оптовая фармацевтической продукцией",
    "city": "Ростов-на-Дону",
    "location": "47.228 39.739",
    "preds": 0.4499859394,
    "target": 1
  },
  {
    "name": "Областная детская больница, педиатрическое отделение",
    "address": "улица Мурлычева, 13 | улица 339-й Стрелковой Дивизии, 14/168",
    "okved_code": "46.46.1",
    "okved_name": "Торговля оптовая фармацевтической продукцией",
    "city": "Ростов-на-Дону",
    "location": "47.224 39.624",
    "preds": 0.4499859394,
    "target": 1
  },
  {
    "name": "Имидж, центр красоты",
    "address": "Нахичеванский переулок, 38а - 3 этаж",
    "okved_code": "46.46.1",
    "okved_name": "Торговля оптовая фармацевтической продукцией",
    "city": "Ростов-на-Дону",
    "location": "47.228 39.739",
    "preds": 0.4499859394,
    "target": 1
  },
  {
    "name": "Имидж, центр красоты",
    "address": "Нахичеванский переулок, 38а - 3 этаж",
    "okved_code": "46.46.1",
    "okved_name": "Торговля оптовая фармацевтической продукцией",
    "city": "Ростов-на-Дону",
    "location": "47.228 39.739",
    "preds": 0.4499859394,
    "target": 1
  },
  {
    "name": "Ростсельмаш, ООО, комбайновый завод",
    "address": "Менжинского, 2",
    "okved_code": "28.30.5",
    "okved_name": "Производство машин для уборки урожая",
    "city": "Ростов-на-Дону",
    "location": "47.254 39.763",
    "preds": 0.4322921462,
    "target": 1
  },
  {
    "name": "Ростсельмаш",
    "address": "просп. Сельмаш, 3, Ростов-на-Дону",
    "okved_code": "28.30.5",
    "okved_name": "Производство машин для уборки урожая",
    "city": "Ростов-на-Дону",
    "location": "47.250 39.764",
    "preds": 0.4322921462,
    "target": 1
  },
  {
    "name": "Комбайновый завод Ростсельмаш",
    "address": "улица Менжинского, 2",
    "okved_code": "28.30.5",
    "okved_name": "Производство машин для уборки урожая",
    "city": "Ростов-на-Дону",
    "location": "47.254 39.763",
    "preds": 0.4322921462,
    "target": 1
  },
  {
    "name": "Ростсельмаш",
    "address": "просп. Сельмаш, 3, Ростов-на-Дону",
    "okved_code": "28.30.5",
    "okved_name": "Производство машин для уборки урожая",
    "city": "Ростов-на-Дону",
    "location": "47.250 39.764",
    "preds": 0.4322921462,
    "target": 1
  },
  {
    "name": "Ростсельмаш",
    "address": "просп. Сельмаш, 3, Ростов-на-Дону",
    "okved_code": "28.30.5",
    "okved_name": "Производство машин для уборки урожая",
    "city": "Ростов-на-Дону",
    "location": "47.250 39.764",
    "preds": 0.4322921462,
    "target": 1
  },
  {
    "name": "Ростсельмаш, ООО, комбайновый завод",
    "address": "Менжинского, 2",
    "okved_code": "28.30.5",
    "okved_name": "Производство машин для уборки урожая",
    "city": "Ростов-на-Дону",
    "location": "47.254 39.763",
    "preds": 0.4322921462,
    "target": 1
  },
  {
    "name": "ЛЕСАН ФАРМА, ООО",
    "address": "Особенная, 5",
    "okved_code": "46.46",
    "okved_name": "Торговля оптовая фармацевтической продукцией",
    "city": "Ростов-на-Дону",
    "location": "47.283 39.680",
    "preds": 0.4194220318,
    "target": 1
  },
  {
    "name": "ЛЕСАН ФАРМА, ООО, торговая компания",
    "address": "Днепроградская, 60 - 2 этаж",
    "okved_code": "46.46",
    "okved_name": "Торговля оптовая фармацевтической продукцией",
    "city": "Ростов-на-Дону",
    "location": "47.279 39.687",
    "preds": 0.4194220318,
    "target": 1
  },
  {
    "name": "Choco Corp., шоколадная корпорация",
    "address": "Глазурный 1-й переулок, 35 - цокольный этаж",
    "okved_code": "46.46",
    "okved_name": "Торговля оптовая фармацевтической продукцией",
    "city": "Ростов-на-Дону",
    "location": "47.227 39.610",
    "preds": 0.4194220318,
    "target": 1
  },
  {
    "name": "Атлантис-Пак, ООО, производственно-коммерческая фирма",
    "address": "Ленина (Аксайский район), Онучкина, 72 - 1 этаж",
    "okved_code": "22.22",
    "okved_name": "Производство пластмассовых изделий для упаковывания товаров",
    "city": "Ростов-на-Дону",
    "location": "47.097 39.857",
    "preds": 0.3971929356,
    "target": 1
  },
  {
    "name": "Атлантис-Пак, ООО, производственно-коммерческая фирма",
    "address": "Ленина (Аксайский район), Онучкина, 72 - 1 этаж",
    "okved_code": "22.22",
    "okved_name": "Производство пластмассовых изделий для упаковывания товаров",
    "city": "Ростов-на-Дону",
    "location": "47.097 39.857",
    "preds": 0.3971929356,
    "target": 1
  },
  {
    "name": "Атлантис-Пак, ООО, производственно-коммерческая фирма",
    "address": "Ленина (Аксайский район), Онучкина, 72 - 1 этаж",
    "okved_code": "22.22",
    "okved_name": "Производство пластмассовых изделий для упаковывания товаров",
    "city": "Ростов-на-Дону",
    "location": "47.097 39.857",
    "preds": 0.3971929356,
    "target": 1
  },
  {
    "name": "Интернет-магазин Marcato",
    "address": "Мелиховская ул., 19, Новочеркасск | Троицкая ул., 39/166, Новочеркасск",
    "okved_code": "72.19",
    "okved_name": "Научные исследования и разработки в области естественных и технических наук прочие",
    "city": "Новочеркасск",
    "location": "47.417 40.081",
    "preds": 0.3806802916,
    "target": 1
  },
  {
    "name": "БВН инжениринг",
    "address": "Троицкая ул., 39/166, Новочеркасск",
    "okved_code": "72.19",
    "okved_name": "Научные исследования и разработки в области естественных и технических наук прочие",
    "city": "Новочеркасск",
    "location": "47.417 40.081",
    "preds": 0.3806802916,
    "target": 1
  },
  {
    "name": "Мылок",
    "address": "Харьковское ш., 5А, Новочеркасск | Красноармейская ул., 116, Новочеркасск | Троицкая ул., 39/166, Новочеркасск",
    "okved_code": "72.19",
    "okved_name": "Научные исследования и разработки в области естественных и технических наук прочие",
    "city": "Новочеркасск",
    "location": "47.417 40.081",
    "preds": 0.3806802916,
    "target": 1
  },
  {
    "name": "Троицкая улица",
    "address": "Россия, Ростовская область, Новочеркасск, улица Богдана Хмельницкого",
    "okved_code": "72.19",
    "okved_name": "Научные исследования и разработки в области естественных и технических наук прочие",
    "city": "Новочеркасск",
    "location": "47.417 40.083",
    "preds": 0.3806802916,
    "target": 1
  },
  {
    "name": "Ростполипласт",
    "address": "Советская ул., 2С, Зверево",
    "okved_code": "38.32.53",
    "okved_name": "Обработка отходов и лома пластмасс",
    "city": "Зверево",
    "location": "48.027 40.118",
    "preds": 0.3784359495,
    "target": 1
  },
  {
    "name": "Ростполипласт",
    "address": "Советская ул., 2С, Зверево",
    "okved_code": "38.32.53",
    "okved_name": "Обработка отходов и лома пластмасс",
    "city": "Зверево",
    "location": "48.027 40.118",
    "preds": 0.3784359495,
    "target": 1
  },
  {
    "name": "ФосАгро-Дон, ООО, оптовая компания",
    "address": "Михаила Нагибина проспект, 30и - 215 офис, 2 этаж",
    "okved_code": "46.75.1",
    "okved_name": "Торговля оптовая удобрениями и агрохимическими продуктами",
    "city": "Ростов-на-Дону",
    "location": "47.257 39.717",
    "preds": 0.3675386587,
    "target": 1
  },
  {
    "name": "ФосАгро-Дон",
    "address": "Россия, Ростовская область, Сальск, Фабричная улица",
    "okved_code": "46.75.1",
    "okved_name": "Торговля оптовая удобрениями и агрохимическими продуктами",
    "city": "Сальск",
    "location": "46.448 41.553",
    "preds": 0.3675386587,
    "target": 1
  },
  {
    "name": "ФосАгро-Дон",
    "address": "просп. Михаила Нагибина, 30И, Ростов-на-Дону",
    "okved_code": "46.75.1",
    "okved_name": "Торговля оптовая удобрениями и агрохимическими продуктами",
    "city": "Ростов-на-Дону",
    "location": "47.257 39.717",
    "preds": 0.3675386587,
    "target": 1
  },
  {
    "name": "ФосАгро-Дон",
    "address": "просп. Михаила Нагибина, 30И, Ростов-на-Дону",
    "okved_code": "46.75.1",
    "okved_name": "Торговля оптовая удобрениями и агрохимическими продуктами",
    "city": "Ростов-на-Дону",
    "location": "47.257 39.717",
    "preds": 0.3675386587,
    "target": 1
  },
  {
    "name": "ФосАгро-Дон",
    "address": "Россия, Ростовская область, Сальск, Фабричная улица",
    "okved_code": "46.75.1",
    "okved_name": "Торговля оптовая удобрениями и агрохимическими продуктами",
    "city": "Сальск",
    "location": "46.448 41.553",
    "preds": 0.3675386587,
    "target": 1
  },
  {
    "name": "Алмаз, АО, завод",
    "address": "Туполева, 16",
    "okved_code": "26.30",
    "okved_name": "Производство коммуникационного оборудования",
    "city": "Ростов-на-Дону",
    "location": "47.283 39.805",
    "preds": 0.3613465997,
    "target": 1
  },
  {
    "name": "Алмаз, АО, завод",
    "address": "Туполева, 16",
    "okved_code": "26.30",
    "okved_name": "Производство коммуникационного оборудования",
    "city": "Ростов-на-Дону",
    "location": "47.283 39.805",
    "preds": 0.3613465997,
    "target": 1
  },
  {
    "name": "Алмаз, ювелирный магазин",
    "address": "Толстого площадь, 13а | Коммунистический проспект, 32/3 - 2 этаж, 39 модуль",
    "okved_code": "26.30",
    "okved_name": "Производство коммуникационного оборудования",
    "city": "Ростов-на-Дону",
    "location": "47.232 39.766",
    "preds": 0.3613465997,
    "target": 1
  },
  {
    "name": "КБ Фарватер",
    "address": "ул. Нансена, 154, Ростов-на-Дону",
    "okved_code": "72.1",
    "okved_name": "Научные исследования и разработки в области естественных и технических наук",
    "city": "Ростов-на-Дону",
    "location": "47.243 39.728",
    "preds": 0.3558782234,
    "target": 1
  },
  {
    "name": "Конструкторское Бюро Фарватер",
    "address": "Красноводская ул., 8/7, Ростов-на-Дону",
    "okved_code": "72.1",
    "okved_name": "Научные исследования и разработки в области естественных и технических наук",
    "city": "Ростов-на-Дону",
    "location": "47.242 39.722",
    "preds": 0.3558782234,
    "target": 1
  },
  {
    "name": "Медиком МТД",
    "address": "улица Фрунзе, 68",
    "okved_code": "26.60.1",
    "okved_name": "Производство аппаратов, применяемых в медицинских целях, основанных на использовании рентгеновского, альфа-, бета- и гамма-излучений",
    "city": "Таганрог",
    "location": "47.218 38.923",
    "preds": 0.3347386456,
    "target": 1
  },
  {
    "name": "Медиком МТД",
    "address": "улица Фрунзе, 68",
    "okved_code": "26.60.1",
    "okved_name": "Производство аппаратов, применяемых в медицинских целях, основанных на использовании рентгеновского, альфа-, бета- и гамма-излучений",
    "city": "Таганрог",
    "location": "47.218 38.923",
    "preds": 0.3347386456,
    "target": 1
  },
  {
    "name": "Медиком МТД, ООО, научно-производственно-конструкторская фирма",
    "address": "Фрунзе, 68",
    "okved_code": "26.60.1",
    "okved_name": "Производство аппаратов, применяемых в медицинских целях, основанных на использовании рентгеновского, альфа-, бета- и гамма-излучений",
    "city": "Таганрог",
    "location": "47.218 38.922",
    "preds": 0.3347386456,
    "target": 1
  },
  {
    "name": "Лаборатория Электронная Медицина",
    "address": "ул. 14-я Линия, 55Д, Ростов-на-Дону",
    "okved_code": "63.11",
    "okved_name": "Деятельность по обработке данных, предоставление услуг по размещению информации и связанная с этим деятельность",
    "city": "Ростов-на-Дону",
    "location": "47.236 39.756",
    "preds": 0.3310198373,
    "target": 1
  },
  {
    "name": "Лаборатория Электронная Медицина, ООО, IT-компания",
    "address": "Ченцова, 50 / 14-я линия, 55 - 101 офис, 1 этаж",
    "okved_code": "63.11",
    "okved_name": "Деятельность по обработке данных, предоставление услуг по размещению информации и связанная с этим деятельность",
    "city": "Ростов-на-Дону",
    "location": "47.236 39.756",
    "preds": 0.3310198373,
    "target": 1
  },
  {
    "name": "Лаборатория Электронная Медицина",
    "address": "ул. 14-я Линия, 55Д, Ростов-на-Дону",
    "okved_code": "63.11",
    "okved_name": "Деятельность по обработке данных, предоставление услуг по размещению информации и связанная с этим деятельность",
    "city": "Ростов-на-Дону",
    "location": "47.236 39.756",
    "preds": 0.3310198373,
    "target": 1
  },
  {
    "name": "Лаборатория Электронная Медицина",
    "address": "ул. 14-я Линия, 55Д, Ростов-на-Дону",
    "okved_code": "63.11",
    "okved_name": "Деятельность по обработке данных, предоставление услуг по размещению информации и связанная с этим деятельность",
    "city": "Ростов-на-Дону",
    "location": "47.236 39.756",
    "preds": 0.3310198373,
    "target": 1
  },
  {
    "name": "Сапфир",
    "address": "просп. Михаила Нагибина, 40, Ростов-на-Дону",
    "okved_code": "71.12.12",
    "okved_name": "Разработка проектов промышленных процессов и производств, относящихся к электротехнике, электронной технике, горному делу, химической технологии, машиностроению, а также в области промышленного строительства, системотехники и техники безопасности",
    "city": "Ростов-на-Дону",
    "location": "47.267 39.724",
    "preds": 0.3270044618,
    "target": 1
  },
  {
    "name": "Сапфир, агентство недвижимости",
    "address": "Троллейбусная, 24/2в - 834 офис, 8 этаж",
    "okved_code": "71.12.12",
    "okved_name": "Разработка проектов промышленных процессов и производств, относящихся к электротехнике, электронной технике, горному делу, химической технологии, машиностроению, а также в области промышленного строительства, системотехники и техники безопасности",
    "city": "Ростов-на-Дону",
    "location": "47.268 39.761",
    "preds": 0.3270044618,
    "target": 1
  },
  {
    "name": "Сапфир",
    "address": "Шеболдаева, 15 - 1 этаж | 40-летия Победы проспект, 67 - 1 этаж | улица Шеболдаева, 15 | Станиславского, 110",
    "okved_code": "71.12.12",
    "okved_name": "Разработка проектов промышленных процессов и производств, относящихся к электротехнике, электронной технике, горному делу, химической технологии, машиностроению, а также в области промышленного строительства, системотехники и техники безопасности",
    "city": "Ростов-на-Дону",
    "location": "47.249 39.697",
    "preds": 0.3270044618,
    "target": 1
  },
  {
    "name": "Сапфир, агентство недвижимости",
    "address": "Троллейбусная, 24/2в - 834 офис, 8 этаж",
    "okved_code": "71.12.12",
    "okved_name": "Разработка проектов промышленных процессов и производств, относящихся к электротехнике, электронной технике, горному делу, химической технологии, машиностроению, а также в области промышленного строительства, системотехники и техники безопасности",
    "city": "Ростов-на-Дону",
    "location": "47.268 39.761",
    "preds": 0.3270044618,
    "target": 1
  },
  {
    "name": "Турбулентность-Дон",
    "address": "60К-8, 1-й километр, 6/7",
    "okved_code": "26.51",
    "okved_name": "Производство инструментов и приборов для измерения, тестирования и навигации",
    "city": "Ростов-на-Дону",
    "location": "47.298 39.653",
    "preds": 0.326942736,
    "target": 1
  },
  {
    "name": "Турбулентность-Дон",
    "address": "60К-8, 1-й километр, 6/7",
    "okved_code": "26.51",
    "okved_name": "Производство инструментов и приборов для измерения, тестирования и навигации",
    "city": "Ростов-на-Дону",
    "location": "47.298 39.653",
    "preds": 0.326942736,
    "target": 1
  },
  {
    "name": "Турбулентность-Дон, торгово-производственная компания",
    "address": "Ленинаван (Мясниковский район), Ростов-Новошахтинск трасса 1 км, 6/8 / Ростов-Новошахтинск трасса 1 км, 6/7",
    "okved_code": "26.51",
    "okved_name": "Производство инструментов и приборов для измерения, тестирования и навигации",
    "city": "Ростов-на-Дону",
    "location": "47.298 39.653",
    "preds": 0.326942736,
    "target": 1
  },
  {
    "name": "Нелакс",
    "address": "улица Маршала Жукова, 2А",
    "okved_code": "72.19",
    "okved_name": "Научные исследования и разработки в области естественных и технических наук прочие",
    "city": "Таганрог",
    "location": "47.277 38.930",
    "preds": 0.3179810987,
    "target": 1
  },
  {
    "name": "Нелакс",
    "address": "улица Маршала Жукова, 2А",
    "okved_code": "72.19",
    "okved_name": "Научные исследования и разработки в области естественных и технических наук прочие",
    "city": "Таганрог",
    "location": "47.277 38.930",
    "preds": 0.3179810987,
    "target": 1
  },
  {
    "name": "Нелакс",
    "address": "улица Маршала Жукова, 2А",
    "okved_code": "72.19",
    "okved_name": "Научные исследования и разработки в области естественных и технических наук прочие",
    "city": "Таганрог",
    "location": "47.277 38.930",
    "preds": 0.3179810987,
    "target": 1
  },
  {
    "name": "Комбинат крупнопанельного домостроения, АО",
    "address": "Машиностроительный 1-й переулок, 5Б",
    "okved_code": "23.61",
    "okved_name": "Производство изделий из бетона для использования в строительстве",
    "city": "Ростов-на-Дону",
    "location": "47.254 39.608",
    "preds": 0.3081483115,
    "target": 1
  },
  {
    "name": "Парус-Дон, ООО, торговая компания",
    "address": "Береговая, 8 - 1501 офис, 15 этаж",
    "okved_code": "62.01",
    "okved_name": "Разработка компьютерного программного обеспечения",
    "city": "Ростов-на-Дону",
    "location": "47.213 39.705",
    "preds": 0.3043257891,
    "target": 1
  },
  {
    "name": "Монитор",
    "address": "Краснокурсантская ул., 104А, Ростов-на-Дону",
    "okved_code": "26.60.5",
    "okved_name": "Производство диагностического и терапевтического оборудования, применяемого в медицинских целях",
    "city": "Ростов-на-Дону",
    "location": "47.269 39.721",
    "preds": 0.2833439814,
    "target": 1
  },
  {
    "name": "Монитор, ООО, научно-производственное предприятие",
    "address": "Краснокурсантская, 104а",
    "okved_code": "26.60.5",
    "okved_name": "Производство диагностического и терапевтического оборудования, применяемого в медицинских целях",
    "city": "Ростов-на-Дону",
    "location": "47.269 39.721",
    "preds": 0.2833439814,
    "target": 1
  },
  {
    "name": "Reallab, ООО НИЛ АП",
    "address": "Биржевой Спуск переулок, 8",
    "okved_code": "26.11.9",
    "okved_name": "Производство частей электронных ламп, трубок и прочих электронных компонентов, не включенных в другие группировки",
    "city": "Таганрог",
    "location": "47.216 38.934",
    "preds": 0.2831291134,
    "target": 1
  },
  {
    "name": "Научно-исследовательская лаборатория автоматизации проектирования",
    "address": "пер. Биржевой Спуск, 8, Таганрог",
    "okved_code": "26.11.9",
    "okved_name": "Производство частей электронных ламп, трубок и прочих электронных компонентов, не включенных в другие группировки",
    "city": "Таганрог",
    "location": "47.216 38.933",
    "preds": 0.2831291134,
    "target": 1
  },
  {
    "name": "Научно-исследовательская лаборатория автоматизации проектирования",
    "address": "пер. Биржевой Спуск, 8, Таганрог",
    "okved_code": "26.11.9",
    "okved_name": "Производство частей электронных ламп, трубок и прочих электронных компонентов, не включенных в другие группировки",
    "city": "Таганрог",
    "location": "47.216 38.933",
    "preds": 0.2831291134,
    "target": 1
  },
  {
    "name": "Научно-исследовательская лаборатория автоматизации проектирования",
    "address": "пер. Биржевой Спуск, 8, Таганрог",
    "okved_code": "26.11.9",
    "okved_name": "Производство частей электронных ламп, трубок и прочих электронных компонентов, не включенных в другие группировки",
    "city": "Таганрог",
    "location": "47.216 38.933",
    "preds": 0.2831291134,
    "target": 1
  },
  {
    "name": "Reallab, ООО НИЛ АП",
    "address": "Биржевой Спуск переулок, 8",
    "okved_code": "26.11.9",
    "okved_name": "Производство частей электронных ламп, трубок и прочих электронных компонентов, не включенных в другие группировки",
    "city": "Таганрог",
    "location": "47.216 38.934",
    "preds": 0.2831291134,
    "target": 1
  },
  {
    "name": "Reallab, ООО НИЛ АП",
    "address": "Биржевой Спуск переулок, 8",
    "okved_code": "26.11.9",
    "okved_name": "Производство частей электронных ламп, трубок и прочих электронных компонентов, не включенных в другие группировки",
    "city": "Таганрог",
    "location": "47.216 38.934",
    "preds": 0.2831291134,
    "target": 1
  },
  {
    "name": "Донские технологии",
    "address": "Михайловская ул., 164А, Новочеркасск",
    "okved_code": "72.19",
    "okved_name": "Научные исследования и разработки в области естественных и технических наук прочие",
    "city": "Новочеркасск",
    "location": "47.415 40.081",
    "preds": 0.2775718185,
    "target": 1
  },
  {
    "name": "Метроспецтехника",
    "address": "улица Смычки, 66 | Металлургическая улица, 102/2",
    "okved_code": "72.19",
    "okved_name": "Научные исследования и разработки в области естественных и технических наук прочие",
    "city": "Ростов-на-Дону",
    "location": "47.255 39.771",
    "preds": 0.2663482847,
    "target": 1
  },
  {
    "name": "Метроспецтехника",
    "address": "улица Смычки, 66",
    "okved_code": "72.19",
    "okved_name": "Научные исследования и разработки в области естественных и технических наук прочие",
    "city": "Ростов-на-Дону",
    "location": "47.253 39.771",
    "preds": 0.2663482847,
    "target": 1
  },
  {
    "name": "Метроспецтехника, ООО, конструкторское бюро",
    "address": "Шолохова проспект, 53 | Смычки переулок, 66 - 1 этаж | Металлургическая, 102/3 - 406, 407 офис, 4 этаж",
    "okved_code": "72.19",
    "okved_name": "Научные исследования и разработки в области естественных и технических наук прочие",
    "city": "Ростов-на-Дону",
    "location": "47.253 39.772",
    "preds": 0.2663482847,
    "target": 1
  },
  {
    "name": "Квант, ОАО, научно-производственное предприятие космического приборостроения",
    "address": "Мильчакова, 7 / Стабильная, 1",
    "okved_code": "30.30.5",
    "okved_name": "Производство частей и принадлежностей летательных и космических аппаратов",
    "city": "Ростов-на-Дону",
    "location": "47.216 39.626",
    "preds": 0.2658184715,
    "target": 1
  },
  {
    "name": "Квант, ОАО, научно-производственное предприятие космического приборостроения",
    "address": "Мильчакова, 7 / Стабильная, 1",
    "okved_code": "30.30.5",
    "okved_name": "Производство частей и принадлежностей летательных и космических аппаратов",
    "city": "Ростов-на-Дону",
    "location": "47.216 39.626",
    "preds": 0.2658184715,
    "target": 1
  },
  {
    "name": "Электронно-информационные системы",
    "address": "просп. Карла Маркса, 81, Шахты",
    "okved_code": "72.19",
    "okved_name": "Научные исследования и разработки в области естественных и технических наук прочие",
    "city": "Шахты",
    "location": "47.711 40.208",
    "preds": 0.2447710345,
    "target": 1
  },
  {
    "name": "ГРУППА АГРОКОМ, ООО, консалтинговая компания",
    "address": "Газетный переулок, 84 / Красноармейская, 170",
    "okved_code": "70.10.2",
    "okved_name": "Деятельность по управлению холдинг-компаниями",
    "city": "Ростов-на-Дону",
    "location": "47.227 39.714",
    "preds": 0.2430053491,
    "target": 1
  },
  {
    "name": "Tece, производственно-торговая компания",
    "address": "50 лет Ростсельмаша, 1/52 - 722 офис, 7 этаж",
    "okved_code": "63.99",
    "okved_name": "Деятельность информационных служб прочая, не включенная в другие группировки",
    "city": "Ростов-на-Дону",
    "location": "47.270 39.760",
    "preds": 0.2393035755,
    "target": 1
  },
  {
    "name": "Южный Градостроительный центр",
    "address": "Газетный пер., 121/262А, Ростов-на-Дону",
    "okved_code": "71.11.2",
    "okved_name": "Деятельность по территориальному планированию и планировке территории",
    "city": "Ростов-на-Дону",
    "location": "47.232 39.711",
    "preds": 0.2351759227,
    "target": 1
  },
  {
    "name": "Южный Градостроительный центр",
    "address": "Газетный пер., 121/262А, Ростов-на-Дону",
    "okved_code": "71.11.2",
    "okved_name": "Деятельность по территориальному планированию и планировке территории",
    "city": "Ростов-на-Дону",
    "location": "47.232 39.711",
    "preds": 0.2351759227,
    "target": 1
  },
  {
    "name": "АЗС Flash",
    "address": "Поляковское шоссе, 20А",
    "okved_code": "46.71.1",
    "okved_name": "Торговля оптовая твердым топливом",
    "city": "Таганрог",
    "location": "47.209 38.862",
    "preds": 0.2195207158,
    "target": 1
  },
  {
    "name": "G-Energy",
    "address": "ул. Энгельса, 343А, Батайск",
    "okved_code": "46.71.1",
    "okved_name": "Торговля оптовая твердым топливом",
    "city": "Батайск",
    "location": "47.122 39.752",
    "preds": 0.2195207158,
    "target": 1
  },
  {
    "name": "G-Energy",
    "address": "ул. Энгельса, 343А, Батайск",
    "okved_code": "46.71.1",
    "okved_name": "Торговля оптовая твердым топливом",
    "city": "Батайск",
    "location": "47.122 39.752",
    "preds": 0.2195207158,
    "target": 1
  },
  {
    "name": "Бонум",
    "address": "ул. 1-й Пятилетки, 69, Батайск",
    "okved_code": "29.20",
    "okved_name": "Производство кузовов для автотранспортных средств; производство прицепов и полуприцепов",
    "city": "Батайск",
    "location": "47.128 39.720",
    "preds": 0.2156187545,
    "target": 1
  },
  {
    "name": "Бонум",
    "address": "ул. 1-й Пятилетки, 69, Батайск",
    "okved_code": "29.20",
    "okved_name": "Производство кузовов для автотранспортных средств; производство прицепов и полуприцепов",
    "city": "Батайск",
    "location": "47.128 39.720",
    "preds": 0.2156187545,
    "target": 1
  },
  {
    "name": "Бонум, ООО, машиностроительный завод",
    "address": "1 Пятилетки, 69",
    "okved_code": "29.20",
    "okved_name": "Производство кузовов для автотранспортных средств; производство прицепов и полуприцепов",
    "city": "Батайск",
    "location": "47.128 39.720",
    "preds": 0.2156187545,
    "target": 1
  },
  {
    "name": "Бонум, ООО, машиностроительный завод",
    "address": "1 Пятилетки, 69",
    "okved_code": "29.20",
    "okved_name": "Производство кузовов для автотранспортных средств; производство прицепов и полуприцепов",
    "city": "Батайск",
    "location": "47.128 39.720",
    "preds": 0.2156187545,
    "target": 1
  },
  {
    "name": "Бонум",
    "address": "ул. 1-й Пятилетки, 69, Батайск",
    "okved_code": "29.20",
    "okved_name": "Производство кузовов для автотранспортных средств; производство прицепов и полуприцепов",
    "city": "Батайск",
    "location": "47.128 39.720",
    "preds": 0.2156187545,
    "target": 1
  },
  {
    "name": "Ниипав, склад",
    "address": "ул. Химиков, 54, Волгодонск | ул. Химиков, 62, Волгодонск",
    "okved_code": "20.41.2",
    "okved_name": "Производство органических поверхностно-активных веществ, кроме мыла",
    "city": "Волгодонск",
    "location": "47.516 42.124",
    "preds": 0.2149684938,
    "target": 1
  },
  {
    "name": "Ниипав, склад",
    "address": "ул. Химиков, 54, Волгодонск | ул. Химиков, 62, Волгодонск",
    "okved_code": "20.41.2",
    "okved_name": "Производство органических поверхностно-активных веществ, кроме мыла",
    "city": "Волгодонск",
    "location": "47.516 42.124",
    "preds": 0.2149684938,
    "target": 1
  },
  {
    "name": "Парфюмерия и косметика",
    "address": "ул. 30 лет Победы, 9, Волгодонск",
    "okved_code": "20.41.2",
    "okved_name": "Производство органических поверхностно-активных веществ, кроме мыла",
    "city": "Волгодонск",
    "location": "47.507 42.161",
    "preds": 0.2149684938,
    "target": 1
  },
  {
    "name": "ЭЛИД, ООО, торгово-производственная фирма",
    "address": "Стачки проспект, 247",
    "okved_code": "27.12",
    "okved_name": "Производство электрической распределительной и регулирующей аппаратуры",
    "city": "Ростов-на-Дону",
    "location": "47.211 39.608",
    "preds": 0.2124992563,
    "target": 1
  },
  {
    "name": "ЭЛИД, ООО, торгово-производственная фирма",
    "address": "Коллонтаевский переулок, 84",
    "okved_code": "27.12",
    "okved_name": "Производство электрической распределительной и регулирующей аппаратуры",
    "city": "Азов",
    "location": "47.101 39.424",
    "preds": 0.2124992563,
    "target": 1
  },
  {
    "name": "Элид, Азовский филиал",
    "address": "Коллонтаевский пер., 84, Азов",
    "okved_code": "27.12",
    "okved_name": "Производство электрической распределительной и регулирующей аппаратуры",
    "city": "Азов",
    "location": "47.101 39.424",
    "preds": 0.2124992563,
    "target": 1
  },
  {
    "name": "Элид, Азовский филиал",
    "address": "Коллонтаевский пер., 84, Азов",
    "okved_code": "27.12",
    "okved_name": "Производство электрической распределительной и регулирующей аппаратуры",
    "city": "Азов",
    "location": "47.101 39.424",
    "preds": 0.2124992563,
    "target": 1
  },
  {
    "name": "ЭЛИД, ООО, торгово-производственная фирма",
    "address": "Стачки проспект, 247",
    "okved_code": "27.12",
    "okved_name": "Производство электрической распределительной и регулирующей аппаратуры",
    "city": "Ростов-на-Дону",
    "location": "47.211 39.608",
    "preds": 0.2124992563,
    "target": 1
  },
  {
    "name": "ЭЛИД, ООО, торгово-производственная фирма",
    "address": "Коллонтаевский переулок, 84",
    "okved_code": "27.12",
    "okved_name": "Производство электрической распределительной и регулирующей аппаратуры",
    "city": "Азов",
    "location": "47.101 39.424",
    "preds": 0.2124992563,
    "target": 1
  },
  {
    "name": "НПЦ Космос-2",
    "address": "Будённовский проспект, 35",
    "okved_code": "62.01",
    "okved_name": "Разработка компьютерного программного обеспечения",
    "city": "Ростов-на-Дону",
    "location": "47.222 39.707",
    "preds": 0.207876275,
    "target": 1
  },
  {
    "name": "НПЦ Космос-2",
    "address": "Будённовский проспект, 35",
    "okved_code": "62.01",
    "okved_name": "Разработка компьютерного программного обеспечения",
    "city": "Ростов-на-Дону",
    "location": "47.222 39.707",
    "preds": 0.207876275,
    "target": 1
  },
  {
    "name": "Космос-2, ООО, научно-производственный центр",
    "address": "Будённовский проспект, 97а",
    "okved_code": "62.01",
    "okved_name": "Разработка компьютерного программного обеспечения",
    "city": "Ростов-на-Дону",
    "location": "47.233 39.701",
    "preds": 0.207876275,
    "target": 1
  },
  {
    "name": "НПЦ Космос-2",
    "address": "Будённовский проспект, 35",
    "okved_code": "62.01",
    "okved_name": "Разработка компьютерного программного обеспечения",
    "city": "Ростов-на-Дону",
    "location": "47.222 39.707",
    "preds": 0.207876275,
    "target": 1
  },
  {
    "name": "Космос-2, ООО, научно-производственный центр",
    "address": "Будённовский проспект, 97а",
    "okved_code": "62.01",
    "okved_name": "Разработка компьютерного программного обеспечения",
    "city": "Ростов-на-Дону",
    "location": "47.233 39.701",
    "preds": 0.207876275,
    "target": 1
  },
  {
    "name": "НПЦ Космос-2",
    "address": "Будённовский проспект, 35",
    "okved_code": "62.01",
    "okved_name": "Разработка компьютерного программного обеспечения",
    "city": "Ростов-на-Дону",
    "location": "47.222 39.707",
    "preds": 0.207876275,
    "target": 1
  },
  {
    "name": "НПЦ Космос-2",
    "address": "Будённовский проспект, 35",
    "okved_code": "62.01",
    "okved_name": "Разработка компьютерного программного обеспечения",
    "city": "Ростов-на-Дону",
    "location": "47.222 39.707",
    "preds": 0.207876275,
    "target": 1
  },
  {
    "name": "Datum Group, группа компаний",
    "address": "Доломановский переулок, 70г",
    "okved_code": "72.19.9",
    "okved_name": "Научные исследования и разработки в области естественных и технических наук прочие, не включенные в другие группировки",
    "city": "Ростов-на-Дону",
    "location": "47.226 39.696",
    "preds": 0.2077820462,
    "target": 1
  },
  {
    "name": "Datum Group, группа компаний",
    "address": "Доломановский переулок, 70г",
    "okved_code": "72.19.9",
    "okved_name": "Научные исследования и разработки в области естественных и технических наук прочие, не включенные в другие группировки",
    "city": "Ростов-на-Дону",
    "location": "47.226 39.696",
    "preds": 0.2077820462,
    "target": 1
  },
  {
    "name": "Datum Group, группа компаний",
    "address": "Доломановский переулок, 70г",
    "okved_code": "72.19.9",
    "okved_name": "Научные исследования и разработки в области естественных и технических наук прочие, не включенные в другие группировки",
    "city": "Ростов-на-Дону",
    "location": "47.226 39.696",
    "preds": 0.2077820462,
    "target": 1
  },
  {
    "name": "Datum Group, группа компаний",
    "address": "Доломановский переулок, 70г",
    "okved_code": "72.19.9",
    "okved_name": "Научные исследования и разработки в области естественных и технических наук прочие, не включенные в другие группировки",
    "city": "Ростов-на-Дону",
    "location": "47.226 39.696",
    "preds": 0.2077820462,
    "target": 1
  },
  {
    "name": "Datum Group, группа компаний",
    "address": "Доломановский переулок, 70г",
    "okved_code": "72.19.9",
    "okved_name": "Научные исследования и разработки в области естественных и технических наук прочие, не включенные в другие группировки",
    "city": "Ростов-на-Дону",
    "location": "47.226 39.696",
    "preds": 0.2077820462,
    "target": 1
  },
  {
    "name": "Datum Group, группа компаний",
    "address": "Братский переулок, 48 / Согласия, 19 - 3, 4 офис, 1 этаж",
    "okved_code": "72.19.9",
    "okved_name": "Научные исследования и разработки в области естественных и технических наук прочие, не включенные в другие группировки",
    "city": "Ростов-на-Дону",
    "location": "47.221 39.700",
    "preds": 0.2077820462,
    "target": 1
  },
  {
    "name": "Датум Групп",
    "address": "Доломановский пер., 70Г, Ростов-на-Дону",
    "okved_code": "72.19.9",
    "okved_name": "Научные исследования и разработки в области естественных и технических наук прочие, не включенные в другие группировки",
    "city": "Ростов-на-Дону",
    "location": "47.226 39.697",
    "preds": 0.2077820462,
    "target": 1
  },
  {
    "name": "Датум Групп",
    "address": "Братский пер., 48/19, Ростов-на-Дону | Доломановский пер., 70Г, Ростов-на-Дону",
    "okved_code": "72.19.9",
    "okved_name": "Научные исследования и разработки в области естественных и технических наук прочие, не включенные в другие группировки",
    "city": "Ростов-на-Дону",
    "location": "47.226 39.697",
    "preds": 0.2077820462,
    "target": 1
  },
  {
    "name": "Датум Групп",
    "address": "Братский пер., 48/19, Ростов-на-Дону | Доломановский пер., 70Г, Ростов-на-Дону",
    "okved_code": "72.19.9",
    "okved_name": "Научные исследования и разработки в области естественных и технических наук прочие, не включенные в другие группировки",
    "city": "Ростов-на-Дону",
    "location": "47.226 39.697",
    "preds": 0.2077820462,
    "target": 1
  },
  {
    "name": "Датум групп",
    "address": "Братский пер., 48/19, Ростов-на-Дону",
    "okved_code": "72.19.9",
    "okved_name": "Научные исследования и разработки в области естественных и технических наук прочие, не включенные в другие группировки",
    "city": "Ростов-на-Дону",
    "location": "47.221 39.699",
    "preds": 0.2077820462,
    "target": 1
  },
  {
    "name": "Мир Света",
    "address": "Гоголевский пер., 26А, Таганрог",
    "okved_code": "27.40",
    "okved_name": "Производство электрических ламп и осветительного оборудования",
    "city": "Таганрог",
    "location": "47.214 38.916",
    "preds": 0.1936540007,
    "target": 1
  },
  {
    "name": "Технологии света",
    "address": "Мариупольское ш., 71Л, Таганрог",
    "okved_code": "27.40",
    "okved_name": "Производство электрических ламп и осветительного оборудования",
    "city": "Таганрог",
    "location": "47.215 38.829",
    "preds": 0.1936540007,
    "target": 1
  },
  {
    "name": "Технологии света",
    "address": "Мариупольское ш., 71Л, Таганрог",
    "okved_code": "27.40",
    "okved_name": "Производство электрических ламп и осветительного оборудования",
    "city": "Таганрог",
    "location": "47.215 38.829",
    "preds": 0.1936540007,
    "target": 1
  },
  {
    "name": "СПЕЦГРУЗАВТОТРАНС, компания",
    "address": "Москатова, 31/2 - 37 офис",
    "okved_code": "27.40",
    "okved_name": "Производство электрических ламп и осветительного оборудования",
    "city": "Таганрог",
    "location": "47.257 38.911",
    "preds": 0.1936540007,
    "target": 1
  },
  {
    "name": "Технологии света",
    "address": "Мариупольское ш., 71Л, Таганрог",
    "okved_code": "27.40",
    "okved_name": "Производство электрических ламп и осветительного оборудования",
    "city": "Таганрог",
    "location": "47.215 38.829",
    "preds": 0.1936540007,
    "target": 1
  },
  {
    "name": "Мир Света",
    "address": "Гоголевский пер., 26А, Таганрог",
    "okved_code": "27.40",
    "okved_name": "Производство электрических ламп и осветительного оборудования",
    "city": "Таганрог",
    "location": "47.214 38.916",
    "preds": 0.1936540007,
    "target": 1
  },
  {
    "name": "Технологии Света",
    "address": "Мариупольское ш., 71Л, Таганрог | улица Дзержинского, 171",
    "okved_code": "27.40",
    "okved_name": "Производство электрических ламп и осветительного оборудования",
    "city": "Таганрог",
    "location": "47.255 38.918",
    "preds": 0.1936540007,
    "target": 1
  },
  {
    "name": "Магазин света",
    "address": "ул. Чехова, 223, Таганрог",
    "okved_code": "27.40",
    "okved_name": "Производство электрических ламп и осветительного оборудования",
    "city": "Таганрог",
    "location": "47.217 38.901",
    "preds": 0.1936540007,
    "target": 1
  },
  {
    "name": "Магазин света",
    "address": "ул. Чехова, 223, Таганрог",
    "okved_code": "27.40",
    "okved_name": "Производство электрических ламп и осветительного оборудования",
    "city": "Таганрог",
    "location": "47.217 38.901",
    "preds": 0.1936540007,
    "target": 1
  },
  {
    "name": "Мир света, магазин",
    "address": "Гоголевский переулок, 26а",
    "okved_code": "27.40",
    "okved_name": "Производство электрических ламп и осветительного оборудования",
    "city": "Таганрог",
    "location": "47.214 38.916",
    "preds": 0.1936540007,
    "target": 1
  },
  {
    "name": "Лилиани",
    "address": "Доломановский пер., 70Д, Ростов-на-Дону",
    "okved_code": "28.30.8",
    "okved_name": "Производство прочих сельскохозяйственных машин и оборудования",
    "city": "Ростов-на-Дону",
    "location": "47.227 39.695",
    "preds": 0.1853179871,
    "target": 1
  },
  {
    "name": "Лилиани",
    "address": "Доломановский пер., 70Д, Ростов-на-Дону",
    "okved_code": "28.30.8",
    "okved_name": "Производство прочих сельскохозяйственных машин и оборудования",
    "city": "Ростов-на-Дону",
    "location": "47.227 39.695",
    "preds": 0.1853179871,
    "target": 1
  },
  {
    "name": "Лилиани",
    "address": "Доломановский пер., 70Д, Ростов-на-Дону",
    "okved_code": "28.30.8",
    "okved_name": "Производство прочих сельскохозяйственных машин и оборудования",
    "city": "Ростов-на-Дону",
    "location": "47.227 39.695",
    "preds": 0.1853179871,
    "target": 1
  },
  {
    "name": "Лилиани, ООО, производственно-торговая компания",
    "address": "Доломановский переулок, 70д - 2 офис, 1 этаж",
    "okved_code": "28.30.8",
    "okved_name": "Производство прочих сельскохозяйственных машин и оборудования",
    "city": "Ростов-на-Дону",
    "location": "47.227 39.695",
    "preds": 0.1853179871,
    "target": 1
  },
  {
    "name": "ОКБ Ритм, компания",
    "address": "Петровская, 99 - 1 этаж",
    "okved_code": "26.60.1",
    "okved_name": "Производство аппаратов, применяемых в медицинских целях, основанных на использовании рентгеновского, альфа-, бета- и гамма-излучений",
    "city": "Таганрог",
    "location": "47.218 38.923",
    "preds": 0.1733276223,
    "target": 1
  },
  {
    "name": "Ритм, ОКБ",
    "address": "Петровская ул., 99, Таганрог",
    "okved_code": "26.60.1",
    "okved_name": "Производство аппаратов, применяемых в медицинских целях, основанных на использовании рентгеновского, альфа-, бета- и гамма-излучений",
    "city": "Таганрог",
    "location": "47.219 38.923",
    "preds": 0.1733276223,
    "target": 1
  },
  {
    "name": "Интерно, ООО, креативное агентство",
    "address": "Вересаева, 111 - 1 этаж",
    "okved_code": "62.01",
    "okved_name": "Разработка компьютерного программного обеспечения",
    "city": "Ростов-на-Дону",
    "location": "47.237 39.799",
    "preds": 0.1638083694,
    "target": 1
  },
  {
    "name": "Интерно, ООО, креативное агентство",
    "address": "Вересаева, 111 - 1 этаж",
    "okved_code": "62.01",
    "okved_name": "Разработка компьютерного программного обеспечения",
    "city": "Ростов-на-Дону",
    "location": "47.237 39.799",
    "preds": 0.1638083694,
    "target": 1
  },
  {
    "name": "Стройкомплект-Кавказ, ООО, оптово-розничная компания",
    "address": "Стачки проспект, 249 / Машиностроительный переулок, 9а - 305 офис, 3 этаж",
    "okved_code": "46.73.6",
    "okved_name": "Торговля оптовая прочими строительными материалами и изделиями",
    "city": "Ростов-на-Дону",
    "location": "47.211 39.607",
    "preds": 0.1616244836,
    "target": 1
  },
  {
    "name": "Стройкомплект-Кавказ, ООО, оптово-розничная компания",
    "address": "Стачки проспект, 249 / Машиностроительный переулок, 9а - 305 офис, 3 этаж",
    "okved_code": "46.73.6",
    "okved_name": "Торговля оптовая прочими строительными материалами и изделиями",
    "city": "Ростов-на-Дону",
    "location": "47.211 39.607",
    "preds": 0.1616244836,
    "target": 1
  },
  {
    "name": "Стройкомплект-Кавказ, ООО, оптово-розничная компания",
    "address": "Стачки проспект, 249 / Машиностроительный переулок, 9а - 305 офис, 3 этаж",
    "okved_code": "46.73.6",
    "okved_name": "Торговля оптовая прочими строительными материалами и изделиями",
    "city": "Ростов-на-Дону",
    "location": "47.211 39.607",
    "preds": 0.1616244836,
    "target": 1
  },
  {
    "name": "Стройкомплект-Кавказ, ООО, оптово-розничная компания",
    "address": "Стачки проспект, 249 / Машиностроительный переулок, 9а - 305 офис, 3 этаж",
    "okved_code": "46.73.6",
    "okved_name": "Торговля оптовая прочими строительными материалами и изделиями",
    "city": "Ростов-на-Дону",
    "location": "47.211 39.607",
    "preds": 0.1616244836,
    "target": 1
  },
  {
    "name": "Азовская судостроительная верфь",
    "address": "спуск Молокова, 12, Азов",
    "okved_code": "30.1",
    "okved_name": "Строительство кораблей, судов и лодок",
    "city": "Азов",
    "location": "47.116 39.425",
    "preds": 0.1600231563,
    "target": 1
  },
  {
    "name": "Азовская Судоверфь, АО",
    "address": "Молокова спуск, 12",
    "okved_code": "33.15",
    "okved_name": "Ремонт и техническое обслуживание судов и лодок",
    "city": "Азов",
    "location": "47.115 39.426",
    "preds": 0.1600231563,
    "target": 1
  },
  {
    "name": "Азовская судостроительная верфь",
    "address": "спуск Молокова, 12, Азов",
    "okved_code": "30.1",
    "okved_name": "Строительство кораблей, судов и лодок",
    "city": "Азов",
    "location": "47.116 39.425",
    "preds": 0.1600231563,
    "target": 1
  },
  {
    "name": "Азовская судостроительная верфь",
    "address": "спуск Молокова, 12, Азов",
    "okved_code": "30.1",
    "okved_name": "Строительство кораблей, судов и лодок",
    "city": "Азов",
    "location": "47.116 39.425",
    "preds": 0.1600231563,
    "target": 1
  },
  {
    "name": "Европолимер-Трейдинг, торговая компания",
    "address": "Вавилова, 59Б - 5 офис, 1 этаж",
    "okved_code": "46.6",
    "okved_name": "Торговля оптовая прочими машинами, оборудованием и принадлежностями",
    "city": "Ростов-на-Дону",
    "location": "47.271 39.682",
    "preds": 0.142334369,
    "target": 1
  },
  {
    "name": "Европолимер-Трейдинг",
    "address": "ул. Вавилова, 59, Ростов-на-Дону",
    "okved_code": "46.6",
    "okved_name": "Торговля оптовая прочими машинами, оборудованием и принадлежностями",
    "city": "Ростов-на-Дону",
    "location": "47.271 39.684",
    "preds": 0.142334369,
    "target": 1
  },
  {
    "name": "Европолимер-Трейдинг",
    "address": "ул. Вавилова, 59, Ростов-на-Дону",
    "okved_code": "46.6",
    "okved_name": "Торговля оптовая прочими машинами, оборудованием и принадлежностями",
    "city": "Ростов-на-Дону",
    "location": "47.271 39.684",
    "preds": 0.142334369,
    "target": 1
  },
  {
    "name": "Европолимер-Трейдинг",
    "address": "ул. Вавилова, 59, Ростов-на-Дону",
    "okved_code": "46.6",
    "okved_name": "Торговля оптовая прочими машинами, оборудованием и принадлежностями",
    "city": "Ростов-на-Дону",
    "location": "47.271 39.684",
    "preds": 0.142334369,
    "target": 1
  },
  {
    "name": "Северо-Кавказское логистическое предприятие, ООО",
    "address": "Луговая 1-я, 12 - 2 этаж",
    "okved_code": "52.10",
    "okved_name": "Деятельность по складированию и хранению",
    "city": "Ростов-на-Дону",
    "location": "47.200 39.700",
    "preds": 0.1305571939,
    "target": 1
  },
  {
    "name": "Северо-Кавказское логистическое предприятие, ООО",
    "address": "Луговая 1-я, 12 - 2 этаж",
    "okved_code": "52.10",
    "okved_name": "Деятельность по складированию и хранению",
    "city": "Ростов-на-Дону",
    "location": "47.200 39.700",
    "preds": 0.1305571939,
    "target": 1
  },
  {
    "name": "Доринжсервис",
    "address": "улица Варфоломеева, 259",
    "okved_code": "72.1",
    "okved_name": "Научные исследования и разработки в области естественных и технических наук",
    "city": "Ростов-на-Дону",
    "location": "47.234 39.716",
    "preds": 0.1276685371,
    "target": 1
  },
  {
    "name": "Аура 365",
    "address": "Московская ул., 43/13, Ростов-на-Дону",
    "okved_code": "46.69.7",
    "okved_name": "Торговля оптовая измерительными приборами и оборудованием",
    "city": "Ростов-на-Дону",
    "location": "47.217 39.708",
    "preds": 0.1250625322,
    "target": 1
  },
  {
    "name": "DeLogic, производственно-торговая фирма",
    "address": "Страны Советов, 44Б",
    "okved_code": "17.29",
    "okved_name": "Производство прочих изделий из бумаги и картона",
    "city": "Ростов-на-Дону",
    "location": "47.261 39.753",
    "preds": 0.1225962135,
    "target": 1
  },
  {
    "name": "DeLogic, производственно-торговая фирма",
    "address": "Страны Советов, 44Б",
    "okved_code": "17.29",
    "okved_name": "Производство прочих изделий из бумаги и картона",
    "city": "Ростов-на-Дону",
    "location": "47.261 39.753",
    "preds": 0.1225962135,
    "target": 1
  },
  {
    "name": "DeLogic, производственно-торговая фирма",
    "address": "Страны Советов, 44Б",
    "okved_code": "17.29",
    "okved_name": "Производство прочих изделий из бумаги и картона",
    "city": "Ростов-на-Дону",
    "location": "47.261 39.753",
    "preds": 0.1225962135,
    "target": 1
  },
  {
    "name": "Интернет-Фрегат",
    "address": "Троицкая улица, 39/166",
    "okved_code": "62.01",
    "okved_name": "Разработка компьютерного программного обеспечения",
    "city": "Новочеркасск",
    "location": "47.417 40.081",
    "preds": 0.1225683632,
    "target": 1
  },
  {
    "name": "Интернет-Фрегат",
    "address": "Троицкая улица, 39/166",
    "okved_code": "62.01",
    "okved_name": "Разработка компьютерного программного обеспечения",
    "city": "Новочеркасск",
    "location": "47.417 40.081",
    "preds": 0.1225683632,
    "target": 1
  },
  {
    "name": "Интернет-Фрегат",
    "address": "Троицкая ул., 39/166, Новочеркасск",
    "okved_code": "62.01",
    "okved_name": "Разработка компьютерного программного обеспечения",
    "city": "Новочеркасск",
    "location": "47.417 40.081",
    "preds": 0.1225683632,
    "target": 1
  },
  {
    "name": "Магазин Времена года",
    "address": "Комитетская ул., 93, Новочеркасск",
    "okved_code": "62.01",
    "okved_name": "Разработка компьютерного программного обеспечения",
    "city": "Новочеркасск",
    "location": "47.414 40.099",
    "preds": 0.1225683632,
    "target": 1
  },
  {
    "name": "Интернет-Фрегат",
    "address": "Троицкая ул., 39/166, Новочеркасск",
    "okved_code": "62.01",
    "okved_name": "Разработка компьютерного программного обеспечения",
    "city": "Новочеркасск",
    "location": "47.417 40.081",
    "preds": 0.1225683632,
    "target": 1
  },
  {
    "name": "Интернет-Фрегат",
    "address": "Троицкая ул., 39/166, Новочеркасск",
    "okved_code": "62.01",
    "okved_name": "Разработка компьютерного программного обеспечения",
    "city": "Новочеркасск",
    "location": "47.417 40.081",
    "preds": 0.1225683632,
    "target": 1
  },
  {
    "name": "Магазин Времена года",
    "address": "Комитетская ул., 93, Новочеркасск",
    "okved_code": "62.01",
    "okved_name": "Разработка компьютерного программного обеспечения",
    "city": "Новочеркасск",
    "location": "47.414 40.099",
    "preds": 0.1225683632,
    "target": 1
  },
  {
    "name": "Интернет-фрегат",
    "address": "Троицкая улица, 39/166 | Баклановский проспект, 190Н",
    "okved_code": "62.01",
    "okved_name": "Разработка компьютерного программного обеспечения",
    "city": "Новочеркасск",
    "location": "47.423 40.048",
    "preds": 0.1225683632,
    "target": 1
  },
  {
    "name": "Магазин Времена года",
    "address": "Комитетская ул., 93, Новочеркасск",
    "okved_code": "62.01",
    "okved_name": "Разработка компьютерного программного обеспечения",
    "city": "Новочеркасск",
    "location": "47.414 40.099",
    "preds": 0.1225683632,
    "target": 1
  },
  {
    "name": "Система продажи Флюгер",
    "address": "Троицкая улица, 39/166 | Троицкая ул., 39/166, Новочеркасск",
    "okved_code": "62.01",
    "okved_name": "Разработка компьютерного программного обеспечения",
    "city": "Новочеркасск",
    "location": "47.417 40.081",
    "preds": 0.1225683632,
    "target": 1
  },
  {
    "name": "Сервис Карданных Валов, ООО",
    "address": "Промышленная, 4",
    "okved_code": "72.19",
    "okved_name": "Научные исследования и разработки в области естественных и технических наук прочие",
    "city": "Аксай",
    "location": "47.278 39.858",
    "preds": 0.1157717508,
    "target": 1
  },
  {
    "name": "Энсет, ООО, торгово-сервисная фирма",
    "address": "Михаила Нагибина проспект, 3а / Гагарина площадь, 1 䎢 - 609 офис, 6 этаж",
    "okved_code": "72.19",
    "okved_name": "Научные исследования и разработки в области естественных и технических наук прочие",
    "city": "Ростов-на-Дону",
    "location": "47.238 39.713",
    "preds": 0.1157717508,
    "target": 1
  },
  {
    "name": "Энсет, ООО, торгово-сервисная фирма",
    "address": "Михаила Нагибина проспект, 3а / Гагарина площадь, 1 䎢 - 609 офис, 6 этаж",
    "okved_code": "72.19",
    "okved_name": "Научные исследования и разработки в области естественных и технических наук прочие",
    "city": "Ростов-на-Дону",
    "location": "47.238 39.713",
    "preds": 0.1157717508,
    "target": 1
  },
  {
    "name": "Энсет",
    "address": "просп. Михаила Нагибина, 3А, Ростов-на-Дону",
    "okved_code": "72.19",
    "okved_name": "Научные исследования и разработки в области естественных и технических наук прочие",
    "city": "Ростов-на-Дону",
    "location": "47.238 39.713",
    "preds": 0.1157717508,
    "target": 1
  },
  {
    "name": "Сервис Карданных Валов, ООО",
    "address": "Промышленная, 4",
    "okved_code": "72.19",
    "okved_name": "Научные исследования и разработки в области естественных и технических наук прочие",
    "city": "Аксай",
    "location": "47.278 39.858",
    "preds": 0.1157717508,
    "target": 1
  },
  {
    "name": "Таркус, ООО",
    "address": "Шолохова проспект, 282Б - 6 офис, 4 этаж",
    "okved_code": "46.69.5",
    "okved_name": "Торговля оптовая производственным электротехническим оборудованием, машинами, аппаратурой и материалами",
    "city": "Ростов-на-Дону",
    "location": "47.262 39.811",
    "preds": 0.1151214176,
    "target": 1
  },
  {
    "name": "Ростовское Время",
    "address": "ул. Капустина, 22, микрорайон Северный, Ростов-на-Дону",
    "okved_code": "26.52",
    "okved_name": "Производство часов",
    "city": "Ростов-на-Дону",
    "location": "47.279 39.712",
    "preds": 0.1118689451,
    "target": 1
  },
  {
    "name": "Ростовское время, компания по производству башенных и настенных часов",
    "address": "Бориса Капустина, 22",
    "okved_code": "26.52",
    "okved_name": "Производство часов",
    "city": "Ростов-на-Дону",
    "location": "47.279 39.713",
    "preds": 0.1118689451,
    "target": 1
  },
  {
    "name": "Ростовское Время",
    "address": "ул. Капустина, 22, микрорайон Северный, Ростов-на-Дону",
    "okved_code": "26.52",
    "okved_name": "Производство часов",
    "city": "Ростов-на-Дону",
    "location": "47.279 39.712",
    "preds": 0.1118689451,
    "target": 1
  },
  {
    "name": "КорВита",
    "address": "ул. Мечникова, 114, Ростов-на-Дону",
    "okved_code": "26.60.1",
    "okved_name": "Производство аппаратов, применяемых в медицинских целях, основанных на использовании рентгеновского, альфа-, бета- и гамма-излучений",
    "city": "Ростов-на-Дону",
    "location": "47.239 39.690",
    "preds": 0.1066147838,
    "target": 1
  },
  {
    "name": "Рнд Софт, IT-компания",
    "address": "Варфоломеева, 262а / Газетный переулок, 121 - 601 офис, 6 этаж",
    "okved_code": "62.01",
    "okved_name": "Разработка компьютерного программного обеспечения",
    "city": "Ростов-на-Дону",
    "location": "47.232 39.711",
    "preds": 0.1056295353,
    "target": 1
  },
  {
    "name": "Рнд Софт",
    "address": "Газетный пер., 121/262А, Ростов-на-Дону",
    "okved_code": "62.01",
    "okved_name": "Разработка компьютерного программного обеспечения",
    "city": "Ростов-на-Дону",
    "location": "47.232 39.711",
    "preds": 0.1056295353,
    "target": 1
  },
  {
    "name": "Рнд Софт, IT-компания",
    "address": "Варфоломеева, 262а / Газетный переулок, 121 - 601 офис, 6 этаж",
    "okved_code": "62.01",
    "okved_name": "Разработка компьютерного программного обеспечения",
    "city": "Ростов-на-Дону",
    "location": "47.232 39.711",
    "preds": 0.1056295353,
    "target": 1
  },
  {
    "name": "Рнд Софт, IT-компания",
    "address": "Варфоломеева, 262а / Газетный переулок, 121 - 601 офис, 6 этаж",
    "okved_code": "62.01",
    "okved_name": "Разработка компьютерного программного обеспечения",
    "city": "Ростов-на-Дону",
    "location": "47.232 39.711",
    "preds": 0.1056295353,
    "target": 1
  },
  {
    "name": "Рнд Софт",
    "address": "Газетный пер., 121/262А, Ростов-на-Дону",
    "okved_code": "62.01",
    "okved_name": "Разработка компьютерного программного обеспечения",
    "city": "Ростов-на-Дону",
    "location": "47.232 39.711",
    "preds": 0.1056295353,
    "target": 1
  },
  {
    "name": "Рнд Софт",
    "address": "Газетный пер., 121/262А, Ростов-на-Дону",
    "okved_code": "62.01",
    "okved_name": "Разработка компьютерного программного обеспечения",
    "city": "Ростов-на-Дону",
    "location": "47.232 39.711",
    "preds": 0.1056295353,
    "target": 1
  },
  {
    "name": "Jint",
    "address": "ул. Волкова, 22, микрорайон Северный, Ростов-на-Дону",
    "okved_code": "72.19",
    "okved_name": "Научные исследования и разработки в области естественных и технических наук прочие",
    "city": "Ростов-на-Дону",
    "location": "47.283 39.720",
    "preds": 0.1050493354,
    "target": 1
  },
  {
    "name": "Jint",
    "address": "Атмосферный пер., 3, поселок Верхнетемерницкий | ул. Волкова, 22, микрорайон Северный, Ростов-на-Дону",
    "okved_code": "72.19",
    "okved_name": "Научные исследования и разработки в области естественных и технических наук прочие",
    "city": "Ростов-на-Дону",
    "location": "47.283 39.720",
    "preds": 0.1050493354,
    "target": 1
  },
  {
    "name": "Jint",
    "address": "Атмосферный пер., 3, поселок Верхнетемерницкий | ул. Волкова, 22, микрорайон Северный, Ростов-на-Дону",
    "okved_code": "72.19",
    "okved_name": "Научные исследования и разработки в области естественных и технических наук прочие",
    "city": "Ростов-на-Дону",
    "location": "47.283 39.720",
    "preds": 0.1050493354,
    "target": 1
  },
  {
    "name": "Ингениум, ООО, торгово-производственная фирма",
    "address": "Инженерная, 16",
    "okved_code": "46.69.9",
    "okved_name": "Торговля оптовая прочими машинами, приборами, аппаратурой и оборудованием общепромышленного и специального назначения",
    "city": "Ростов-на-Дону",
    "location": "47.271 39.696",
    "preds": 0.1032314272,
    "target": 1
  },
  {
    "name": "Ингениум, ООО, торгово-производственная фирма",
    "address": "Инженерная, 16",
    "okved_code": "46.69.9",
    "okved_name": "Торговля оптовая прочими машинами, приборами, аппаратурой и оборудованием общепромышленного и специального назначения",
    "city": "Ростов-на-Дону",
    "location": "47.271 39.696",
    "preds": 0.1032314272,
    "target": 1
  },
  {
    "name": "Ингениум, ООО, торгово-производственная фирма",
    "address": "Инженерная, 16",
    "okved_code": "46.69.9",
    "okved_name": "Торговля оптовая прочими машинами, приборами, аппаратурой и оборудованием общепромышленного и специального назначения",
    "city": "Ростов-на-Дону",
    "location": "47.271 39.696",
    "preds": 0.1032314272,
    "target": 1
  },
  {
    "name": "Диджтл Клининг, ООО",
    "address": "Королёва проспект, 7 / Добровольского, 19",
    "okved_code": "62.01",
    "okved_name": "Разработка компьютерного программного обеспечения",
    "city": "Ростов-на-Дону",
    "location": "47.296 39.700",
    "preds": 0.0982935083,
    "target": 1
  },
  {
    "name": "SiDez",
    "address": "Баклановский просп., 200В, Новочеркасск",
    "okved_code": "72.19",
    "okved_name": "Научные исследования и разработки в области естественных и технических наук прочие",
    "city": "Новочеркасск",
    "location": "47.423 40.040",
    "preds": 0.0871828702,
    "target": 1
  },
  {
    "name": "SiDez",
    "address": "Баклановский просп., 200В, Новочеркасск",
    "okved_code": "72.19",
    "okved_name": "Научные исследования и разработки в области естественных и технических наук прочие",
    "city": "Новочеркасск",
    "location": "47.423 40.040",
    "preds": 0.0871828702,
    "target": 1
  },
  {
    "name": "SiDez",
    "address": "Баклановский просп., 200В, Новочеркасск",
    "okved_code": "72.19",
    "okved_name": "Научные исследования и разработки в области естественных и технических наук прочие",
    "city": "Новочеркасск",
    "location": "47.423 40.040",
    "preds": 0.0871828702,
    "target": 1
  },
  {
    "name": "Джинт",
    "address": "Атмосферный пер., 3, поселок Верхнетемерницкий",
    "okved_code": "72.19",
    "okved_name": "Научные исследования и разработки в области естественных и технических наук прочие",
    "city": "Ростов-на-Дону",
    "location": "47.305 39.733",
    "preds": 0.0815346697,
    "target": 1
  },
  {
    "name": "Джинт",
    "address": "Атмосферный пер., 3, поселок Верхнетемерницкий",
    "okved_code": "72.19",
    "okved_name": "Научные исследования и разработки в области естественных и технических наук прочие",
    "city": "Ростов-на-Дону",
    "location": "47.305 39.733",
    "preds": 0.0815346697,
    "target": 1
  },
  {
    "name": "Джинт, ООО",
    "address": "Верхнетемерницкий (Аксайский район), Атмосферный переулок, 3",
    "okved_code": "72.19",
    "okved_name": "Научные исследования и разработки в области естественных и технических наук прочие",
    "city": "Ростов-на-Дону",
    "location": "47.305 39.733",
    "preds": 0.0815346697,
    "target": 1
  },
  {
    "name": "Джинт",
    "address": "Атмосферный пер., 3, поселок Верхнетемерницкий",
    "okved_code": "72.19",
    "okved_name": "Научные исследования и разработки в области естественных и технических наук прочие",
    "city": "Ростов-на-Дону",
    "location": "47.305 39.733",
    "preds": 0.0815346697,
    "target": 1
  },
  {
    "name": "Джинт, ООО",
    "address": "Верхнетемерницкий (Аксайский район), Атмосферный переулок, 3",
    "okved_code": "72.19",
    "okved_name": "Научные исследования и разработки в области естественных и технических наук прочие",
    "city": "Ростов-на-Дону",
    "location": "47.305 39.733",
    "preds": 0.0815346697,
    "target": 1
  },
  {
    "name": "Джинт, ООО",
    "address": "Верхнетемерницкий (Аксайский район), Атмосферный переулок, 3",
    "okved_code": "72.19",
    "okved_name": "Научные исследования и разработки в области естественных и технических наук прочие",
    "city": "Ростов-на-Дону",
    "location": "47.305 39.733",
    "preds": 0.0815346697,
    "target": 1
  },
  {
    "name": "Scanros",
    "address": "Береговая, 8 - 911 офис, 9 этаж",
    "okved_code": "46.61",
    "okved_name": "Торговля оптовая машинами, оборудованием и инструментами для сельского хозяйства",
    "city": "Ростов-на-Дону",
    "location": "47.213 39.705",
    "preds": 0.0743229197,
    "target": 1
  },
  {
    "name": "Scanros",
    "address": "Береговая ул., 8, Ростов-на-Дону",
    "okved_code": "46.61",
    "okved_name": "Торговля оптовая машинами, оборудованием и инструментами для сельского хозяйства",
    "city": "Ростов-на-Дону",
    "location": "47.212 39.705",
    "preds": 0.0743229197,
    "target": 1
  },
  {
    "name": "Веловод",
    "address": "ул. Суворова, 52А, Ростов-на-Дону",
    "okved_code": "72.19",
    "okved_name": "Научные исследования и разработки в области естественных и технических наук прочие",
    "city": "Ростов-на-Дону",
    "location": "47.225 39.729",
    "preds": 0.0694869352,
    "target": 1
  },
  {
    "name": "Прокат квадрокоптеров",
    "address": "ул. Суворова, 52А, Ростов-на-Дону",
    "okved_code": "72.19",
    "okved_name": "Научные исследования и разработки в области естественных и технических наук прочие",
    "city": "Ростов-на-Дону",
    "location": "47.225 39.729",
    "preds": 0.0694869352,
    "target": 1
  },
  {
    "name": "Прокат квадрокоптеров",
    "address": "ул. Суворова, 52А, Ростов-на-Дону",
    "okved_code": "72.19",
    "okved_name": "Научные исследования и разработки в области естественных и технических наук прочие",
    "city": "Ростов-на-Дону",
    "location": "47.225 39.729",
    "preds": 0.0694869352,
    "target": 1
  },
  {
    "name": "Веловод",
    "address": "ул. Суворова, 52А, Ростов-на-Дону",
    "okved_code": "72.19",
    "okved_name": "Научные исследования и разработки в области естественных и технических наук прочие",
    "city": "Ростов-на-Дону",
    "location": "47.225 39.729",
    "preds": 0.0694869352,
    "target": 1
  },
  {
    "name": "Веловод",
    "address": "ул. Суворова, 52А, Ростов-на-Дону",
    "okved_code": "72.19",
    "okved_name": "Научные исследования и разработки в области естественных и технических наук прочие",
    "city": "Ростов-на-Дону",
    "location": "47.225 39.729",
    "preds": 0.0694869352,
    "target": 1
  },
  {
    "name": "Прокат квадрокоптеров",
    "address": "ул. Суворова, 52А, Ростов-на-Дону",
    "okved_code": "72.19",
    "okved_name": "Научные исследования и разработки в области естественных и технических наук прочие",
    "city": "Ростов-на-Дону",
    "location": "47.225 39.729",
    "preds": 0.0694869352,
    "target": 1
  },
  {
    "name": "СофтМайнд",
    "address": "ул. Просвещения, 155А, Новочеркасск",
    "okved_code": "72.19",
    "okved_name": "Научные исследования и разработки в области естественных и технических наук прочие",
    "city": "Новочеркасск",
    "location": "47.415 40.083",
    "preds": 0.0667487128,
    "target": 1
  },
  {
    "name": "СофтМайнд",
    "address": "ул. Просвещения, 155А, Новочеркасск",
    "okved_code": "72.19",
    "okved_name": "Научные исследования и разработки в области естественных и технических наук прочие",
    "city": "Новочеркасск",
    "location": "47.415 40.083",
    "preds": 0.0667487128,
    "target": 1
  },
  {
    "name": "АТРИО-групп, ООО",
    "address": "Текучёва, 348 / Театральный проспект, 60а - 502 офис, 2 этаж",
    "okved_code": "46.51",
    "okved_name": "Торговля оптовая компьютерами, периферийными устройствами к компьютерам и программным обеспечением",
    "city": "Ростов-на-Дону",
    "location": "47.240 39.736",
    "preds": 0.0632311666,
    "target": 1
  },
  {
    "name": "АТРИО-групп, ООО",
    "address": "Текучёва, 348 / Театральный проспект, 60а - 502 офис, 2 этаж",
    "okved_code": "46.51",
    "okved_name": "Торговля оптовая компьютерами, периферийными устройствами к компьютерам и программным обеспечением",
    "city": "Ростов-на-Дону",
    "location": "47.240 39.736",
    "preds": 0.0632311666,
    "target": 1
  },
  {
    "name": "АТРИО-групп, ООО",
    "address": "Текучёва, 348 / Театральный проспект, 60а - 502 офис, 2 этаж",
    "okved_code": "46.51",
    "okved_name": "Торговля оптовая компьютерами, периферийными устройствами к компьютерам и программным обеспечением",
    "city": "Ростов-на-Дону",
    "location": "47.240 39.736",
    "preds": 0.0632311666,
    "target": 1
  },
  {
    "name": "АТРИО-групп, ООО",
    "address": "Текучёва, 348 / Театральный проспект, 60а - 502 офис, 2 этаж",
    "okved_code": "46.51",
    "okved_name": "Торговля оптовая компьютерами, периферийными устройствами к компьютерам и программным обеспечением",
    "city": "Ростов-на-Дону",
    "location": "47.240 39.736",
    "preds": 0.0632311666,
    "target": 1
  },
  {
    "name": "АТРИО-групп, ООО",
    "address": "Текучёва, 348 / Театральный проспект, 60а - 502 офис, 2 этаж",
    "okved_code": "46.51",
    "okved_name": "Торговля оптовая компьютерами, периферийными устройствами к компьютерам и программным обеспечением",
    "city": "Ростов-на-Дону",
    "location": "47.240 39.736",
    "preds": 0.0632311666,
    "target": 1
  },
  {
    "name": "Унивирлаб",
    "address": "улица Максима Горького, 151",
    "okved_code": "62.01",
    "okved_name": "Разработка компьютерного программного обеспечения",
    "city": "Ростов-на-Дону",
    "location": "47.227 39.714",
    "preds": 0.0587804803,
    "target": 1
  },
  {
    "name": "Унивирлаб",
    "address": "улица Максима Горького, 151",
    "okved_code": "62.01",
    "okved_name": "Разработка компьютерного программного обеспечения",
    "city": "Ростов-на-Дону",
    "location": "47.227 39.714",
    "preds": 0.0587804803,
    "target": 1
  },
  {
    "name": "БИОХРАН, ООО",
    "address": "Металлургическая, 102/2 / Плужная, 2 - 3 этаж",
    "okved_code": "21.20.2",
    "okved_name": "Производство материалов, применяемых в медицинских целях",
    "city": "Ростов-на-Дону",
    "location": "47.255 39.771",
    "preds": 0.0572158271,
    "target": 1
  },
  {
    "name": "БЕСТЕК-Инжиниринг",
    "address": "улица 14-я Линия, 88",
    "okved_code": "28.93",
    "okved_name": "Производство машин и оборудования для производства пищевых продуктов, напитков и табачных изделий",
    "city": "Ростов-на-Дону",
    "location": "47.243 39.751",
    "preds": 0.0554776667,
    "target": 1
  },
  {
    "name": "БЕСТЕК-Инжиниринг",
    "address": "улица 14-я Линия, 88",
    "okved_code": "28.93",
    "okved_name": "Производство машин и оборудования для производства пищевых продуктов, напитков и табачных изделий",
    "city": "Ростов-на-Дону",
    "location": "47.243 39.751",
    "preds": 0.0554776667,
    "target": 1
  },
  {
    "name": "БЕСТЕК-Инжиниринг, ООО, торгово-производственная фирма",
    "address": "14-я линия, 88 - 210, 211 офис, 2 этаж",
    "okved_code": "28.93",
    "okved_name": "Производство машин и оборудования для производства пищевых продуктов, напитков и табачных изделий",
    "city": "Ростов-на-Дону",
    "location": "47.243 39.751",
    "preds": 0.0554776667,
    "target": 1
  },
  {
    "name": "БЕСТЕК-Инжиниринг, ООО, торгово-производственная фирма",
    "address": "14-я линия, 88 - 210, 211 офис, 2 этаж",
    "okved_code": "28.93",
    "okved_name": "Производство машин и оборудования для производства пищевых продуктов, напитков и табачных изделий",
    "city": "Ростов-на-Дону",
    "location": "47.243 39.751",
    "preds": 0.0554776667,
    "target": 1
  },
  {
    "name": "БЕСТЕК-Инжиниринг",
    "address": "улица 14-я Линия, 88",
    "okved_code": "28.93",
    "okved_name": "Производство машин и оборудования для производства пищевых продуктов, напитков и табачных изделий",
    "city": "Ростов-на-Дону",
    "location": "47.243 39.751",
    "preds": 0.0554776667,
    "target": 1
  },
  {
    "name": "БЕСТЕК-Инжиниринг",
    "address": "улица 14-я Линия, 88",
    "okved_code": "28.93",
    "okved_name": "Производство машин и оборудования для производства пищевых продуктов, напитков и табачных изделий",
    "city": "Ростов-на-Дону",
    "location": "47.243 39.751",
    "preds": 0.0554776667,
    "target": 1
  },
  {
    "name": "МЕТОД, ООО, компания",
    "address": "Сельмаш проспект, 90а / 1-й Конной Армии, 17Б - 706 офис, 7 этаж",
    "okved_code": "62.01",
    "okved_name": "Разработка компьютерного программного обеспечения",
    "city": "Ростов-на-Дону",
    "location": "47.252 39.765",
    "preds": 0.0528320286,
    "target": 1
  },
  {
    "name": "МЕТОД, ООО, компания",
    "address": "Сельмаш проспект, 90а / 1-й Конной Армии, 17Б - 706 офис, 7 этаж",
    "okved_code": "62.01",
    "okved_name": "Разработка компьютерного программного обеспечения",
    "city": "Ростов-на-Дону",
    "location": "47.252 39.765",
    "preds": 0.0528320286,
    "target": 1
  },
  {
    "name": "МЕТОД, ООО, компания",
    "address": "Сельмаш проспект, 90а / 1-й Конной Армии, 17Б - 706 офис, 7 этаж",
    "okved_code": "62.01",
    "okved_name": "Разработка компьютерного программного обеспечения",
    "city": "Ростов-на-Дону",
    "location": "47.252 39.765",
    "preds": 0.0528320286,
    "target": 1
  },
  {
    "name": "ПолюсСофт ИнформТехнологии, IT-компания",
    "address": "Стачки проспект, 290 / Фонарный переулок, 2 - 3 офис, 2 этаж",
    "okved_code": "62.0",
    "okved_name": "Разработка компьютерного программного обеспечения, консультационные услуги в данной области и другие сопутствующие услуги",
    "city": "Ростов-на-Дону",
    "location": "47.212 39.605",
    "preds": 0.0523673747,
    "target": 1
  },
  {
    "name": "ПолюсСофт ИнформТехнологии, IT-компания",
    "address": "Стачки проспект, 290 / Фонарный переулок, 2 - 3 офис, 2 этаж",
    "okved_code": "62.0",
    "okved_name": "Разработка компьютерного программного обеспечения, консультационные услуги в данной области и другие сопутствующие услуги",
    "city": "Ростов-на-Дону",
    "location": "47.212 39.605",
    "preds": 0.0523673747,
    "target": 1
  },
  {
    "name": "ПолюсСофт ИнформТехнологии, IT-компания",
    "address": "Стачки проспект, 290 / Фонарный переулок, 2 - 3 офис, 2 этаж",
    "okved_code": "62.0",
    "okved_name": "Разработка компьютерного программного обеспечения, консультационные услуги в данной области и другие сопутствующие услуги",
    "city": "Ростов-на-Дону",
    "location": "47.212 39.605",
    "preds": 0.0523673747,
    "target": 1
  },
  {
    "name": "ПолюсСофт ИнформТехнологии, IT-компания",
    "address": "Стачки проспект, 290 / Фонарный переулок, 2 - 3 офис, 2 этаж",
    "okved_code": "62.0",
    "okved_name": "Разработка компьютерного программного обеспечения, консультационные услуги в данной области и другие сопутствующие услуги",
    "city": "Ростов-на-Дону",
    "location": "47.212 39.605",
    "preds": 0.0523673747,
    "target": 1
  },
  {
    "name": "Полюссофт Информтехнологии",
    "address": "Петрозаводская улица, 32А",
    "okved_code": "62.0",
    "okved_name": "Разработка компьютерного программного обеспечения, консультационные услуги в данной области и другие сопутствующие услуги",
    "city": "Ростов-на-Дону",
    "location": "47.233 39.633",
    "preds": 0.0523673747,
    "target": 1
  },
  {
    "name": "Полюссофт Информтехнологии",
    "address": "Петрозаводская улица, 32А",
    "okved_code": "62.0",
    "okved_name": "Разработка компьютерного программного обеспечения, консультационные услуги в данной области и другие сопутствующие услуги",
    "city": "Ростов-на-Дону",
    "location": "47.233 39.633",
    "preds": 0.0523673747,
    "target": 1
  },
  {
    "name": "АльфаПроф, ООО",
    "address": "Темерницкая, 44 - 617, 619 офис, 6 этаж",
    "okved_code": "62.0",
    "okved_name": "Разработка компьютерного программного обеспечения, консультационные услуги в данной области и другие сопутствующие услуги",
    "city": "Ростов-на-Дону",
    "location": "47.218 39.711",
    "preds": 0.051449864,
    "target": 1
  },
  {
    "name": "АльфаПроф, ООО",
    "address": "Темерницкая, 44 - 617, 619 офис, 6 этаж",
    "okved_code": "62.0",
    "okved_name": "Разработка компьютерного программного обеспечения, консультационные услуги в данной области и другие сопутствующие услуги",
    "city": "Ростов-на-Дону",
    "location": "47.218 39.711",
    "preds": 0.051449864,
    "target": 1
  },
  {
    "name": "Аграрум, информационно-образовательный портал",
    "address": "Соборный переулок, 66а - 107 офис, 1 этаж",
    "okved_code": "28.30",
    "okved_name": "Производство машин и оборудования для сельского и лесного хозяйства",
    "city": "Ростов-на-Дону",
    "location": "47.230 39.707",
    "preds": 0.0514324453,
    "target": 1
  },
  {
    "name": "Аграрум, информационно-образовательный портал",
    "address": "Соборный переулок, 66а - 107 офис, 1 этаж",
    "okved_code": "28.30",
    "okved_name": "Производство машин и оборудования для сельского и лесного хозяйства",
    "city": "Ростов-на-Дону",
    "location": "47.230 39.707",
    "preds": 0.0514324453,
    "target": 1
  },
  {
    "name": "Аграрум-Техника, ООО, производственная компания",
    "address": "Соборный переулок, 66а - 204 офис, 2 этаж",
    "okved_code": "28.30",
    "okved_name": "Производство машин и оборудования для сельского и лесного хозяйства",
    "city": "Ростов-на-Дону",
    "location": "47.230 39.707",
    "preds": 0.0514324453,
    "target": 1
  },
  {
    "name": "Аграрум-техника",
    "address": "Соборный пер., 66А, Ростов-на-Дону",
    "okved_code": "28.30",
    "okved_name": "Производство машин и оборудования для сельского и лесного хозяйства",
    "city": "Ростов-на-Дону",
    "location": "47.230 39.707",
    "preds": 0.0514324453,
    "target": 1
  },
  {
    "name": "Аграрум-техника",
    "address": "Соборный пер., 66А, Ростов-на-Дону",
    "okved_code": "28.30",
    "okved_name": "Производство машин и оборудования для сельского и лесного хозяйства",
    "city": "Ростов-на-Дону",
    "location": "47.230 39.707",
    "preds": 0.0514324453,
    "target": 1
  },
  {
    "name": "3Д Принт Лаб, ООО",
    "address": "Некрасовская, 75 / Силикатный переулок, 10 - 9 офис, 1 этаж",
    "okved_code": "22.29",
    "okved_name": "Производство прочих пластмассовых изделий",
    "city": "Ростов-на-Дону",
    "location": "47.225 39.661",
    "preds": 0.048147166,
    "target": 1
  },
  {
    "name": "3Д Принт Лаб, ООО",
    "address": "Некрасовская, 75 / Силикатный переулок, 10 - 9 офис, 1 этаж",
    "okved_code": "22.29",
    "okved_name": "Производство прочих пластмассовых изделий",
    "city": "Ростов-на-Дону",
    "location": "47.225 39.661",
    "preds": 0.048147166,
    "target": 1
  },
  {
    "name": "3д Принт Лаб",
    "address": "Некрасовская ул., 89, микрорайон Ленгородок, Ростов-на-Дону",
    "okved_code": "22.29",
    "okved_name": "Производство прочих пластмассовых изделий",
    "city": "Ростов-на-Дону",
    "location": "47.225 39.661",
    "preds": 0.048147166,
    "target": 1
  },
  {
    "name": "3Д Принт Лаб, ООО",
    "address": "Некрасовская, 75 / Силикатный переулок, 10 - 9 офис, 1 этаж",
    "okved_code": "22.29",
    "okved_name": "Производство прочих пластмассовых изделий",
    "city": "Ростов-на-Дону",
    "location": "47.225 39.661",
    "preds": 0.048147166,
    "target": 1
  },
  {
    "name": "3д Принт Лаб",
    "address": "Некрасовская ул., 89, микрорайон Ленгородок, Ростов-на-Дону",
    "okved_code": "22.29",
    "okved_name": "Производство прочих пластмассовых изделий",
    "city": "Ростов-на-Дону",
    "location": "47.225 39.661",
    "preds": 0.048147166,
    "target": 1
  },
  {
    "name": "3д Принт Лаб",
    "address": "Некрасовская ул., 89, микрорайон Ленгородок, Ростов-на-Дону",
    "okved_code": "22.29",
    "okved_name": "Производство прочих пластмассовых изделий",
    "city": "Ростов-на-Дону",
    "location": "47.225 39.661",
    "preds": 0.048147166,
    "target": 1
  },
  {
    "name": "РосАгроСервис, торгово-сервисная компания",
    "address": "Ленина проспект, 42",
    "okved_code": "45.31",
    "okved_name": "Торговля оптовая автомобильными деталями, узлами и принадлежностями",
    "city": "Аксай",
    "location": "47.284 39.857",
    "preds": 0.0477316867,
    "target": 1
  },
  {
    "name": "РостАгроСервис",
    "address": "просп. Ленина, 42, Аксай",
    "okved_code": "45.31",
    "okved_name": "Торговля оптовая автомобильными деталями, узлами и принадлежностями",
    "city": "Аксай",
    "location": "47.284 39.857",
    "preds": 0.0477316867,
    "target": 1
  },
  {
    "name": "РосАгроСервис, торгово-сервисная компания",
    "address": "Ленина проспект, 42",
    "okved_code": "45.31",
    "okved_name": "Торговля оптовая автомобильными деталями, узлами и принадлежностями",
    "city": "Аксай",
    "location": "47.284 39.857",
    "preds": 0.0477316867,
    "target": 1
  },
  {
    "name": "РосАгроСервис, торгово-сервисная компания",
    "address": "Ленина проспект, 42",
    "okved_code": "45.31",
    "okved_name": "Торговля оптовая автомобильными деталями, узлами и принадлежностями",
    "city": "Аксай",
    "location": "47.284 39.857",
    "preds": 0.0477316867,
    "target": 1
  },
  {
    "name": "РостАгроСервис",
    "address": "просп. Ленина, 42, Аксай",
    "okved_code": "45.31",
    "okved_name": "Торговля оптовая автомобильными деталями, узлами и принадлежностями",
    "city": "Аксай",
    "location": "47.284 39.857",
    "preds": 0.0477316867,
    "target": 1
  },
  {
    "name": "РосАгроСервис, торгово-сервисная компания",
    "address": "Ленина проспект, 42",
    "okved_code": "45.31",
    "okved_name": "Торговля оптовая автомобильными деталями, узлами и принадлежностями",
    "city": "Аксай",
    "location": "47.284 39.857",
    "preds": 0.0477316867,
    "target": 1
  },
  {
    "name": "РостАгроСервис",
    "address": "просп. Ленина, 42, Аксай",
    "okved_code": "45.31",
    "okved_name": "Торговля оптовая автомобильными деталями, узлами и принадлежностями",
    "city": "Аксай",
    "location": "47.284 39.857",
    "preds": 0.0477316867,
    "target": 1
  },
  {
    "name": "РосАгроСервис, торгово-сервисная компания",
    "address": "Ленина проспект, 42",
    "okved_code": "45.31",
    "okved_name": "Торговля оптовая автомобильными деталями, узлами и принадлежностями",
    "city": "Аксай",
    "location": "47.284 39.857",
    "preds": 0.0477316867,
    "target": 1
  },
  {
    "name": "РостАгроСервис",
    "address": "просп. Ленина, 42, Аксай",
    "okved_code": "45.31",
    "okved_name": "Торговля оптовая автомобильными деталями, узлами и принадлежностями",
    "city": "Аксай",
    "location": "47.284 39.857",
    "preds": 0.0477316867,
    "target": 1
  },
  {
    "name": "Мастерская 𡅡",
    "address": "Доватора, 146т - 1 этаж | Михаила Нагибина проспект, 40 䎥 - 1 этаж | Железнодорожный Нижний проезд, 1Б - 1 этаж | Геологическая, 16 | Элеваторный переулок, 9Б | Верхнетемерницкий (Аксайский район), Обсерваторная, 42 / Ньютона, 35 | Тимошенко, 13/2 | Измайловский бульвар, 17 | Шолохова проспект, 302 | Машиностроительный переулок, 13 - 1 этаж, правое крыло | Троллейбусная, 4 䎢 | 19-я линия, 57 䎡 | Береговая, 67 - 1 этаж",
    "okved_code": "62.02",
    "okved_name": "Деятельность консультативная и работы в области компьютерных технологий",
    "city": "Ростов-на-Дону",
    "location": "47.246 39.606",
    "preds": 0.0441075952,
    "target": 1
  },
  {
    "name": "Мастерская 𡅡",
    "address": "Доватора, 146т - 1 этаж | Михаила Нагибина проспект, 40 䎥 - 1 этаж | Железнодорожный Нижний проезд, 1Б - 1 этаж | Геологическая, 16 | Элеваторный переулок, 9Б | Верхнетемерницкий (Аксайский район), Обсерваторная, 42 / Ньютона, 35 | Тимошенко, 13/2 | Измайловский бульвар, 17 | Шолохова проспект, 302 | Машиностроительный переулок, 13 - 1 этаж, правое крыло | Троллейбусная, 4 䎢 | 19-я линия, 57 䎡 | Береговая, 67 - 1 этаж",
    "okved_code": "62.02",
    "okved_name": "Деятельность консультативная и работы в области компьютерных технологий",
    "city": "Ростов-на-Дону",
    "location": "47.246 39.606",
    "preds": 0.0441075952,
    "target": 1
  },
  {
    "name": "Мастерская 𡅡",
    "address": "Доватора, 146т - 1 этаж | Михаила Нагибина проспект, 40 䎥 - 1 этаж | Железнодорожный Нижний проезд, 1Б - 1 этаж | Геологическая, 16 | Элеваторный переулок, 9Б | Верхнетемерницкий (Аксайский район), Обсерваторная, 42 / Ньютона, 35 | Тимошенко, 13/2 | Измайловский бульвар, 17 | Шолохова проспект, 302 | Машиностроительный переулок, 13 - 1 этаж, правое крыло | Троллейбусная, 4 䎢 | 19-я линия, 57 䎡 | Береговая, 67 - 1 этаж",
    "okved_code": "62.02",
    "okved_name": "Деятельность консультативная и работы в области компьютерных технологий",
    "city": "Ростов-на-Дону",
    "location": "47.246 39.606",
    "preds": 0.0441075952,
    "target": 1
  },
  {
    "name": "ТехноСквер, ООО, научно-производственная фирма",
    "address": "Новокубанский переулок, 5",
    "okved_code": "26.51",
    "okved_name": "Производство инструментов и приборов для измерения, тестирования и навигации",
    "city": "Ростов-на-Дону",
    "location": "47.227 39.812",
    "preds": 0.0428197531,
    "target": 1
  },
  {
    "name": "ТехноСквер, ООО, научно-производственная фирма",
    "address": "Новокубанский переулок, 5",
    "okved_code": "26.51",
    "okved_name": "Производство инструментов и приборов для измерения, тестирования и навигации",
    "city": "Ростов-на-Дону",
    "location": "47.227 39.812",
    "preds": 0.0428197531,
    "target": 1
  },
  {
    "name": "ТехноСквер, ООО, научно-производственная фирма",
    "address": "Новокубанский переулок, 5",
    "okved_code": "26.51",
    "okved_name": "Производство инструментов и приборов для измерения, тестирования и навигации",
    "city": "Ростов-на-Дону",
    "location": "47.227 39.812",
    "preds": 0.0428197531,
    "target": 1
  },
  {
    "name": "Vinta Software",
    "address": "ул. Ларина, 47/33А, Ростов-на-Дону",
    "okved_code": "62.01",
    "okved_name": "Разработка компьютерного программного обеспечения",
    "city": "Ростов-на-Дону",
    "location": "47.258 39.716",
    "preds": 0.0391370984,
    "target": 1
  },
  {
    "name": "ВинтаСофт, ООО",
    "address": "Михаила Нагибина проспект, 33а / Ларина, 47 - 411а офис, 4 этаж",
    "okved_code": "62.01",
    "okved_name": "Разработка компьютерного программного обеспечения",
    "city": "Ростов-на-Дону",
    "location": "47.258 39.716",
    "preds": 0.0391370984,
    "target": 1
  },
  {
    "name": "Ubtec",
    "address": "ул. Шеболдаева, 54, Ростов-на-Дону",
    "okved_code": "46.51",
    "okved_name": "Торговля оптовая компьютерами, периферийными устройствами к компьютерам и программным обеспечением",
    "city": "Ростов-на-Дону",
    "location": "47.261 39.687",
    "preds": 0.0371965547,
    "target": 1
  },
  {
    "name": "ЮбиТек, IT-компания",
    "address": "Шеболдаева, 54 - 1 этаж",
    "okved_code": "46.51",
    "okved_name": "Торговля оптовая компьютерами, периферийными устройствами к компьютерам и программным обеспечением",
    "city": "Ростов-на-Дону",
    "location": "47.261 39.687",
    "preds": 0.0371965547,
    "target": 1
  },
  {
    "name": "Ubtec",
    "address": "ул. Шеболдаева, 54, Ростов-на-Дону",
    "okved_code": "46.51",
    "okved_name": "Торговля оптовая компьютерами, периферийными устройствами к компьютерам и программным обеспечением",
    "city": "Ростов-на-Дону",
    "location": "47.261 39.687",
    "preds": 0.0371965547,
    "target": 1
  },
  {
    "name": "Ubtec",
    "address": "ул. Шеболдаева, 54, Ростов-на-Дону",
    "okved_code": "46.51",
    "okved_name": "Торговля оптовая компьютерами, периферийными устройствами к компьютерам и программным обеспечением",
    "city": "Ростов-на-Дону",
    "location": "47.261 39.687",
    "preds": 0.0371965547,
    "target": 1
  },
  {
    "name": "Ubtec",
    "address": "ул. Шеболдаева, 54, Ростов-на-Дону",
    "okved_code": "46.51",
    "okved_name": "Торговля оптовая компьютерами, периферийными устройствами к компьютерам и программным обеспечением",
    "city": "Ростов-на-Дону",
    "location": "47.261 39.687",
    "preds": 0.0371965547,
    "target": 1
  },
  {
    "name": "ЮбиТек, IT-компания",
    "address": "Шеболдаева, 54 - 1 этаж",
    "okved_code": "46.51",
    "okved_name": "Торговля оптовая компьютерами, периферийными устройствами к компьютерам и программным обеспечением",
    "city": "Ростов-на-Дону",
    "location": "47.261 39.687",
    "preds": 0.0371965547,
    "target": 1
  },
  {
    "name": "ЮбиТек, IT-компания",
    "address": "Шеболдаева, 54 - 1 этаж",
    "okved_code": "46.51",
    "okved_name": "Торговля оптовая компьютерами, периферийными устройствами к компьютерам и программным обеспечением",
    "city": "Ростов-на-Дону",
    "location": "47.261 39.687",
    "preds": 0.0371965547,
    "target": 1
  },
  {
    "name": "ЮбиТек, IT-компания",
    "address": "Шеболдаева, 54 - 1 этаж",
    "okved_code": "46.51",
    "okved_name": "Торговля оптовая компьютерами, периферийными устройствами к компьютерам и программным обеспечением",
    "city": "Ростов-на-Дону",
    "location": "47.261 39.687",
    "preds": 0.0371965547,
    "target": 1
  },
  {
    "name": "Универсальные Бизнестехнологии",
    "address": "ул. Шеболдаева, 54, Ростов-на-Дону",
    "okved_code": "46.51",
    "okved_name": "Торговля оптовая компьютерами, периферийными устройствами к компьютерам и программным обеспечением",
    "city": "Ростов-на-Дону",
    "location": "47.261 39.687",
    "preds": 0.0371965547,
    "target": 1
  },
  {
    "name": "Roonyx, компания",
    "address": "Журавлёва переулок, 136 / Города Волос, 135 - 1 этаж",
    "okved_code": "62.01",
    "okved_name": "Разработка компьютерного программного обеспечения",
    "city": "Ростов-на-Дону",
    "location": "47.233 39.731",
    "preds": 0.0352536582,
    "target": 1
  },
  {
    "name": "Roonyx, компания",
    "address": "Журавлёва переулок, 136 / Города Волос, 135 - 1 этаж",
    "okved_code": "62.01",
    "okved_name": "Разработка компьютерного программного обеспечения",
    "city": "Ростов-на-Дону",
    "location": "47.233 39.731",
    "preds": 0.0352536582,
    "target": 1
  },
  {
    "name": "Лаборатория экономического инжиниринга, ООО, научно-производственная организация",
    "address": "Металлургическая, 102/2 / Плужная, 2 - 404 офис, 4 этаж",
    "okved_code": "69",
    "okved_name": "Деятельность в области права и бухгалтерского учета",
    "city": "Ростов-на-Дону",
    "location": "47.255 39.771",
    "preds": 0.0335003245,
    "target": 1
  },
  {
    "name": "ДММ, ООО",
    "address": "Ворошиловский проспект, 9 - 2 этаж",
    "okved_code": "46.51",
    "okved_name": "Торговля оптовая компьютерами, периферийными устройствами к компьютерам и программным обеспечением",
    "city": "Ростов-на-Дону",
    "location": "47.217 39.721",
    "preds": 0.0333277188,
    "target": 1
  },
  {
    "name": "ДММ, ООО",
    "address": "Ворошиловский проспект, 9 - 2 этаж",
    "okved_code": "46.51",
    "okved_name": "Торговля оптовая компьютерами, периферийными устройствами к компьютерам и программным обеспечением",
    "city": "Ростов-на-Дону",
    "location": "47.217 39.721",
    "preds": 0.0333277188,
    "target": 1
  },
  {
    "name": "Дмм",
    "address": "Башкирская улица, 4/3",
    "okved_code": "46.51",
    "okved_name": "Торговля оптовая компьютерами, периферийными устройствами к компьютерам и программным обеспечением",
    "city": "Ростов-на-Дону",
    "location": "47.258 39.710",
    "preds": 0.0333277188,
    "target": 1
  },
  {
    "name": "ДММ, ООО",
    "address": "Ворошиловский проспект, 9 - 2 этаж",
    "okved_code": "46.51",
    "okved_name": "Торговля оптовая компьютерами, периферийными устройствами к компьютерам и программным обеспечением",
    "city": "Ростов-на-Дону",
    "location": "47.217 39.721",
    "preds": 0.0333277188,
    "target": 1
  },
  {
    "name": "ДММ, ООО",
    "address": "Ворошиловский проспект, 9 - 2 этаж",
    "okved_code": "46.51",
    "okved_name": "Торговля оптовая компьютерами, периферийными устройствами к компьютерам и программным обеспечением",
    "city": "Ростов-на-Дону",
    "location": "47.217 39.721",
    "preds": 0.0333277188,
    "target": 1
  },
  {
    "name": "ДММ, ООО",
    "address": "Ворошиловский проспект, 9 - 2 этаж",
    "okved_code": "46.51",
    "okved_name": "Торговля оптовая компьютерами, периферийными устройствами к компьютерам и программным обеспечением",
    "city": "Ростов-на-Дону",
    "location": "47.217 39.721",
    "preds": 0.0333277188,
    "target": 1
  },
  {
    "name": "Южный Сертификационный центр",
    "address": "улица Каяни, 18",
    "okved_code": "71.20",
    "okved_name": "Технические испытания, исследования, анализ и сертификация",
    "city": "Ростов-на-Дону",
    "location": "47.232 39.748",
    "preds": 0.0326615558,
    "target": 1
  },
  {
    "name": "IT com, компания",
    "address": "Патриотическая 2-я (Советский), 59 - 3 этаж",
    "okved_code": "95.11",
    "okved_name": "Ремонт компьютеров и периферийного компьютерного оборудования",
    "city": "Ростов-на-Дону",
    "location": "47.220 39.614",
    "preds": 0.029531253,
    "target": 1
  },
  {
    "name": "Искандер-СК, ООО",
    "address": "Патриотическая 2-я (Советский), 59 - 301 офис, 3 этаж",
    "okved_code": "95.11",
    "okved_name": "Ремонт компьютеров и периферийного компьютерного оборудования",
    "city": "Ростов-на-Дону",
    "location": "47.220 39.614",
    "preds": 0.029531253,
    "target": 1
  },
  {
    "name": "Симеон АкваБиоТехнологии, ООО, инжиниринговая компания",
    "address": "Университетский переулок, 115 - 1 этаж",
    "okved_code": "03.11",
    "okved_name": "Рыболовство морское",
    "city": "Ростов-на-Дону",
    "location": "47.230 39.725",
    "preds": 0.0237699723,
    "target": 1
  },
  {
    "name": "Симеон АкваБиоТехнологии, ООО, инжиниринговая компания",
    "address": "Университетский переулок, 115 - 1 этаж",
    "okved_code": "03.11",
    "okved_name": "Рыболовство морское",
    "city": "Ростов-на-Дону",
    "location": "47.230 39.725",
    "preds": 0.0237699723,
    "target": 1
  },
  {
    "name": "Симеон АкваБиоТехнологии, ООО, инжиниринговая компания",
    "address": "Университетский переулок, 115 - 1 этаж",
    "okved_code": "03.11",
    "okved_name": "Рыболовство морское",
    "city": "Ростов-на-Дону",
    "location": "47.230 39.725",
    "preds": 0.0237699723,
    "target": 1
  },
  {
    "name": "Симеон АкваБиоТехнологии, ООО, инжиниринговая компания",
    "address": "Университетский переулок, 115 - 1 этаж",
    "okved_code": "03.11",
    "okved_name": "Рыболовство морское",
    "city": "Ростов-на-Дону",
    "location": "47.230 39.725",
    "preds": 0.0237699723,
    "target": 1
  },
  {
    "name": "Симеон АкваБиоТехнологии",
    "address": "Университетский пер., 115, Ростов-на-Дону",
    "okved_code": "03.11",
    "okved_name": "Рыболовство морское",
    "city": "Ростов-на-Дону",
    "location": "47.230 39.725",
    "preds": 0.0237699723,
    "target": 1
  },
  {
    "name": "Симеон АкваБиоТехнологии",
    "address": "Университетский пер., 115, Ростов-на-Дону",
    "okved_code": "03.11",
    "okved_name": "Рыболовство морское",
    "city": "Ростов-на-Дону",
    "location": "47.230 39.725",
    "preds": 0.0237699723,
    "target": 1
  },
  {
    "name": "Симеон АкваБиоТехнологии",
    "address": "Университетский пер., 115, Ростов-на-Дону",
    "okved_code": "03.11",
    "okved_name": "Рыболовство морское",
    "city": "Ростов-на-Дону",
    "location": "47.230 39.725",
    "preds": 0.0237699723,
    "target": 1
  },
  {
    "name": "Unified Cloud System, торгово-сервисная компания",
    "address": "Текучёва, 207 - 12 офис, 2 этаж",
    "okved_code": "63.11.1",
    "okved_name": "Деятельность по созданию и использованию баз данных и информационных ресурсов",
    "city": "Ростов-на-Дону",
    "location": "47.241 39.737",
    "preds": 0.022826432,
    "target": 1
  },
  {
    "name": "Unified Cloud System, торгово-сервисная компания",
    "address": "Текучёва, 207 - 12 офис, 2 этаж",
    "okved_code": "63.11.1",
    "okved_name": "Деятельность по созданию и использованию баз данных и информационных ресурсов",
    "city": "Ростов-на-Дону",
    "location": "47.241 39.737",
    "preds": 0.022826432,
    "target": 1
  },
  {
    "name": "Unified Cloud System, торгово-сервисная компания",
    "address": "Текучёва, 207 - 12 офис, 2 этаж",
    "okved_code": "63.11.1",
    "okved_name": "Деятельность по созданию и использованию баз данных и информационных ресурсов",
    "city": "Ростов-на-Дону",
    "location": "47.241 39.737",
    "preds": 0.022826432,
    "target": 1
  },
  {
    "name": "Unified Cloud System, торгово-сервисная компания",
    "address": "Текучёва, 207 - 12 офис, 2 этаж",
    "okved_code": "63.11.1",
    "okved_name": "Деятельность по созданию и использованию баз данных и информационных ресурсов",
    "city": "Ростов-на-Дону",
    "location": "47.241 39.737",
    "preds": 0.022826432,
    "target": 1
  },
  {
    "name": "Unified Cloud System, торгово-сервисная компания",
    "address": "Текучёва, 207 - 12 офис, 2 этаж",
    "okved_code": "63.11.1",
    "okved_name": "Деятельность по созданию и использованию баз данных и информационных ресурсов",
    "city": "Ростов-на-Дону",
    "location": "47.241 39.737",
    "preds": 0.022826432,
    "target": 1
  },
  {
    "name": "Рубин, коворкинг-центр",
    "address": "Театральный проспект, 85 - 4 этаж",
    "okved_code": "70.22",
    "okved_name": "Консультирование по вопросам коммерческой деятельности и управления",
    "city": "Ростов-на-Дону",
    "location": "47.235 39.737",
    "preds": 0.0223068503,
    "target": 1
  },
  {
    "name": "Рубин, коворкинг-центр",
    "address": "Театральный проспект, 85 - 4 этаж",
    "okved_code": "70.22",
    "okved_name": "Консультирование по вопросам коммерческой деятельности и управления",
    "city": "Ростов-на-Дону",
    "location": "47.235 39.737",
    "preds": 0.0223068503,
    "target": 1
  },
  {
    "name": "Технологический коворкинг Рубин",
    "address": "Театральный просп., 85, Ростов-на-Дону",
    "okved_code": "70.22",
    "okved_name": "Консультирование по вопросам коммерческой деятельности и управления",
    "city": "Ростов-на-Дону",
    "location": "47.235 39.737",
    "preds": 0.0223068503,
    "target": 1
  },
  {
    "name": "Альфабет Медиа, производственная компания",
    "address": "Доватора, 197 - 3 этаж",
    "okved_code": "26.20",
    "okved_name": "Производство компьютеров и периферийного оборудования",
    "city": "Ростов-на-Дону",
    "location": "47.237 39.622",
    "preds": 0.0220882843,
    "target": 1
  },
  {
    "name": "Инвертор, торгово-сервисный центр",
    "address": "Ленинаван (Мясниковский район), Ленина, 3з",
    "okved_code": "72.19",
    "okved_name": "Научные исследования и разработки в области естественных и технических наук прочие",
    "city": "Ростов-на-Дону",
    "location": "47.286 39.625",
    "preds": 0.0160850295,
    "target": 1
  },
  {
    "name": "Инвертор, ООО, торгово-производственная компания, представительство в г. Ростове-на-Дону",
    "address": "Южная, 25г",
    "okved_code": "72.19",
    "okved_name": "Научные исследования и разработки в области естественных и технических наук прочие",
    "city": "Ростов-на-Дону",
    "location": "47.293 39.728",
    "preds": 0.0160850295,
    "target": 1
  },
  {
    "name": "Инвертор, ООО, торгово-производственная компания, представительство в г. Ростове-на-Дону",
    "address": "Южная, 25г",
    "okved_code": "72.19",
    "okved_name": "Научные исследования и разработки в области естественных и технических наук прочие",
    "city": "Ростов-на-Дону",
    "location": "47.293 39.728",
    "preds": 0.0160850295,
    "target": 1
  },
  {
    "name": "Инвертор, торгово-сервисный центр",
    "address": "Ленинаван (Мясниковский район), Ленина, 3з",
    "okved_code": "72.19",
    "okved_name": "Научные исследования и разработки в области естественных и технических наук прочие",
    "city": "Ростов-на-Дону",
    "location": "47.286 39.625",
    "preds": 0.0160850295,
    "target": 1
  },
  {
    "name": "Инвертор, торгово-сервисный центр",
    "address": "Ленинаван (Мясниковский район), Ленина, 3з",
    "okved_code": "72.19",
    "okved_name": "Научные исследования и разработки в области естественных и технических наук прочие",
    "city": "Ростов-на-Дону",
    "location": "47.286 39.625",
    "preds": 0.0160850295,
    "target": 1
  },
  {
    "name": "Инвертор, ООО, торгово-производственная компания, представительство в г. Ростове-на-Дону",
    "address": "Южная, 25г",
    "okved_code": "72.19",
    "okved_name": "Научные исследования и разработки в области естественных и технических наук прочие",
    "city": "Ростов-на-Дону",
    "location": "47.293 39.728",
    "preds": 0.0160850295,
    "target": 1
  },
  {
    "name": "Инвертор, ООО, торгово-производственная компания, представительство в г. Ростове-на-Дону",
    "address": "Южная, 25г",
    "okved_code": "72.19",
    "okved_name": "Научные исследования и разработки в области естественных и технических наук прочие",
    "city": "Ростов-на-Дону",
    "location": "47.293 39.728",
    "preds": 0.0160850295,
    "target": 1
  },
  {
    "name": "Инвертор, ООО, торгово-производственная компания, представительство в г. Ростове-на-Дону",
    "address": "Южная, 25г",
    "okved_code": "72.19",
    "okved_name": "Научные исследования и разработки в области естественных и технических наук прочие",
    "city": "Ростов-на-Дону",
    "location": "47.293 39.728",
    "preds": 0.0160850295,
    "target": 1
  },
  {
    "name": "Инвертор, торгово-сервисный центр",
    "address": "Ленинаван (Мясниковский район), Ленина, 3з",
    "okved_code": "72.19",
    "okved_name": "Научные исследования и разработки в области естественных и технических наук прочие",
    "city": "Ростов-на-Дону",
    "location": "47.286 39.625",
    "preds": 0.0160850295,
    "target": 1
  },
  {
    "name": "Кодекс Юг",
    "address": "Московская ул., 63, Ростов-на-Дону",
    "okved_code": "63.11.1",
    "okved_name": "Деятельность по созданию и использованию баз данных и информационных ресурсов",
    "city": "Ростов-на-Дону",
    "location": "47.219 39.715",
    "preds": 0.0156658532,
    "target": 1
  },
  {
    "name": "Кодекс Юг",
    "address": "Московская улица, 63",
    "okved_code": "63.11.1",
    "okved_name": "Деятельность по созданию и использованию баз данных и информационных ресурсов",
    "city": "Ростов-на-Дону",
    "location": "47.219 39.715",
    "preds": 0.0156658532,
    "target": 1
  },
  {
    "name": "Кодекс Юг, ООО",
    "address": "Московская, 63 / Темерницкая, 58 / Семашко переулок, 28 - 355а офис, 3 этаж",
    "okved_code": "63.11.1",
    "okved_name": "Деятельность по созданию и использованию баз данных и информационных ресурсов",
    "city": "Ростов-на-Дону",
    "location": "47.219 39.715",
    "preds": 0.0156658532,
    "target": 1
  },
  {
    "name": "Кодекс Юг",
    "address": "Московская ул., 63, Ростов-на-Дону",
    "okved_code": "63.11.1",
    "okved_name": "Деятельность по созданию и использованию баз данных и информационных ресурсов",
    "city": "Ростов-на-Дону",
    "location": "47.219 39.715",
    "preds": 0.0156658532,
    "target": 1
  },
  {
    "name": "Кодекс Юг, ООО",
    "address": "Московская, 63 / Темерницкая, 58 / Семашко переулок, 28 - 355а офис, 3 этаж",
    "okved_code": "63.11.1",
    "okved_name": "Деятельность по созданию и использованию баз данных и информационных ресурсов",
    "city": "Ростов-на-Дону",
    "location": "47.219 39.715",
    "preds": 0.0156658532,
    "target": 1
  },
  {
    "name": "Статера, ООО, производственная компания",
    "address": "Малиновского, 3",
    "okved_code": "72.1",
    "okved_name": "Научные исследования и разработки в области естественных и технических наук",
    "city": "Ростов-на-Дону",
    "location": "47.201 39.613",
    "preds": 0.0124036187,
    "target": 1
  },
  {
    "name": "Статера",
    "address": "улица Содружества, 39/2 | проспект Стачки, 200/1",
    "okved_code": "72.1",
    "okved_name": "Научные исследования и разработки в области естественных и технических наук",
    "city": "Ростов-на-Дону",
    "location": "47.227 39.632",
    "preds": 0.0124036187,
    "target": 1
  },
  {
    "name": "Мой дом, ООО, многопрофильная компания",
    "address": "Закруткина, 67в/2Б - 305 офис, 3 этаж",
    "okved_code": "22.23",
    "okved_name": "Производство пластмассовых изделий, используемых в строительстве",
    "city": "Ростов-на-Дону",
    "location": "47.227 39.748",
    "preds": 0.0084222828,
    "target": 1
  },
  {
    "name": "Мой дом, компания",
    "address": "1-й Конной Армии, 37в - вход со двора",
    "okved_code": "22.23",
    "okved_name": "Производство пластмассовых изделий, используемых в строительстве",
    "city": "Ростов-на-Дону",
    "location": "47.260 39.770",
    "preds": 0.0084222828,
    "target": 1
  },
  {
    "name": "Мой дом, ООО, многопрофильная компания",
    "address": "Закруткина, 67в/2Б - 305 офис, 3 этаж",
    "okved_code": "22.23",
    "okved_name": "Производство пластмассовых изделий, используемых в строительстве",
    "city": "Ростов-на-Дону",
    "location": "47.227 39.748",
    "preds": 0.0084222828,
    "target": 1
  },
  {
    "name": "Мой Дом",
    "address": "ул. Закруткина, 67В, Ростов-на-Дону",
    "okved_code": "22.23",
    "okved_name": "Производство пластмассовых изделий, используемых в строительстве",
    "city": "Ростов-на-Дону",
    "location": "47.227 39.748",
    "preds": 0.0084222828,
    "target": 1
  },
  {
    "name": "Мой дом, компания",
    "address": "1-й Конной Армии, 37в - вход со двора",
    "okved_code": "22.23",
    "okved_name": "Производство пластмассовых изделий, используемых в строительстве",
    "city": "Ростов-на-Дону",
    "location": "47.260 39.770",
    "preds": 0.0084222828,
    "target": 1
  },
  {
    "name": "Мой Дом",
    "address": "ул. Закруткина, 67В, Ростов-на-Дону",
    "okved_code": "22.23",
    "okved_name": "Производство пластмассовых изделий, используемых в строительстве",
    "city": "Ростов-на-Дону",
    "location": "47.227 39.748",
    "preds": 0.0084222828,
    "target": 1
  },
  {
    "name": "Мой дом, ООО, многопрофильная компания",
    "address": "Закруткина, 67в/2Б - 305 офис, 3 этаж",
    "okved_code": "22.23",
    "okved_name": "Производство пластмассовых изделий, используемых в строительстве",
    "city": "Ростов-на-Дону",
    "location": "47.227 39.748",
    "preds": 0.0084222828,
    "target": 1
  },
  {
    "name": "Мой Дом",
    "address": "ул. Закруткина, 67В, Ростов-на-Дону",
    "okved_code": "22.23",
    "okved_name": "Производство пластмассовых изделий, используемых в строительстве",
    "city": "Ростов-на-Дону",
    "location": "47.227 39.748",
    "preds": 0.0084222828,
    "target": 1
  },
  {
    "name": "Мой дом",
    "address": "ул. Нансена, 437/1, Ростов-на-Дону",
    "okved_code": "22.23",
    "okved_name": "Производство пластмассовых изделий, используемых в строительстве",
    "city": "Ростов-на-Дону",
    "location": "47.248 39.754",
    "preds": 0.0084222828,
    "target": 1
  },
  {
    "name": "Мой дом, компания",
    "address": "1-й Конной Армии, 37в - вход со двора",
    "okved_code": "22.23",
    "okved_name": "Производство пластмассовых изделий, используемых в строительстве",
    "city": "Ростов-на-Дону",
    "location": "47.260 39.770",
    "preds": 0.0084222828,
    "target": 1
  },
  {
    "name": "Мой дом, компания",
    "address": "1-й Конной Армии, 37в - вход со двора",
    "okved_code": "22.23",
    "okved_name": "Производство пластмассовых изделий, используемых в строительстве",
    "city": "Ростов-на-Дону",
    "location": "47.260 39.770",
    "preds": 0.0084222828,
    "target": 1
  },
  {
    "name": "Инфра, ООО, веб-студия",
    "address": "Зорге, 33 - 5 этаж",
    "okved_code": "62.02",
    "okved_name": "Деятельность консультативная и работы в области компьютерных технологий",
    "city": "Ростов-на-Дону",
    "location": "47.229 39.629",
    "preds": 0.0080046341,
    "target": 1
  },
  {
    "name": "Инфра, ООО, веб-студия",
    "address": "Зорге, 33 - 5 этаж",
    "okved_code": "62.02",
    "okved_name": "Деятельность консультативная и работы в области компьютерных технологий",
    "city": "Ростов-на-Дону",
    "location": "47.229 39.629",
    "preds": 0.0080046341,
    "target": 1
  },
  {
    "name": "Ростовская Строительная Лаборатория, ООО",
    "address": "50 лет Ростсельмаша, 8а - 30 офис, 1 этаж",
    "okved_code": "71.20",
    "okved_name": "Технические испытания, исследования, анализ и сертификация",
    "city": "Ростов-на-Дону",
    "location": "47.274 39.767",
    "preds": 0.0078608655,
    "target": 1
  },
  {
    "name": "ЭнигмаДон",
    "address": "бульвар Комарова, 28, корп. 2",
    "okved_code": "62.09",
    "okved_name": "Деятельность, связанная с использованием вычислительной техники и информационных технологий, прочая",
    "city": "Ростов-на-Дону",
    "location": "47.289 39.708",
    "preds": 0.0077480178,
    "target": 1
  },
  {
    "name": "ЭнигмаДон, ООО",
    "address": "Комарова бульвар, 28/2 - 226а офис, 2 этаж",
    "okved_code": "62.09",
    "okved_name": "Деятельность, связанная с использованием вычислительной техники и информационных технологий, прочая",
    "city": "Ростов-на-Дону",
    "location": "47.289 39.708",
    "preds": 0.0077480178,
    "target": 1
  },
  {
    "name": "ЭнигмаДон, ООО",
    "address": "Комарова бульвар, 28/2 - 226а офис, 2 этаж",
    "okved_code": "62.09",
    "okved_name": "Деятельность, связанная с использованием вычислительной техники и информационных технологий, прочая",
    "city": "Ростов-на-Дону",
    "location": "47.289 39.708",
    "preds": 0.0077480178,
    "target": 1
  },
  {
    "name": "ЭнигмаДон, ООО",
    "address": "Комарова бульвар, 28/2 - 226а офис, 2 этаж",
    "okved_code": "62.09",
    "okved_name": "Деятельность, связанная с использованием вычислительной техники и информационных технологий, прочая",
    "city": "Ростов-на-Дону",
    "location": "47.289 39.708",
    "preds": 0.0077480178,
    "target": 1
  },
  {
    "name": "ЭнигмаДон",
    "address": "бульвар Комарова, 28, корп. 2",
    "okved_code": "62.09",
    "okved_name": "Деятельность, связанная с использованием вычислительной техники и информационных технологий, прочая",
    "city": "Ростов-на-Дону",
    "location": "47.289 39.708",
    "preds": 0.0077480178,
    "target": 1
  },
  {
    "name": "ЭнигмаДон, ООО",
    "address": "Комарова бульвар, 28/2 - 226а офис, 2 этаж",
    "okved_code": "62.09",
    "okved_name": "Деятельность, связанная с использованием вычислительной техники и информационных технологий, прочая",
    "city": "Ростов-на-Дону",
    "location": "47.289 39.708",
    "preds": 0.0077480178,
    "target": 1
  },
  {
    "name": "МАССЕРТ, ООО",
    "address": "Ворошиловский проспект, 46 / Красноармейская, 176 - 623 офис, 6 этаж",
    "okved_code": "71.20.8",
    "okved_name": "Сертификация продукции, услуг и организаций",
    "city": "Ростов-на-Дону",
    "location": "47.228 39.716",
    "preds": 0.0076395293,
    "target": 1
  },
  {
    "name": "Массерт",
    "address": "Ворошиловский проспект, 46/176",
    "okved_code": "71.20.8",
    "okved_name": "Сертификация продукции, услуг и организаций",
    "city": "Ростов-на-Дону",
    "location": "47.228 39.716",
    "preds": 0.0076395293,
    "target": 1
  },
  {
    "name": "Астанция, ООО, магазин солнечных батарей",
    "address": "Пескова, 7 / Машиностроительный переулок, 1 - 2, 5 офис, 1 этаж",
    "okved_code": "27.12",
    "okved_name": "Производство электрической распределительной и регулирующей аппаратуры",
    "city": "Ростов-на-Дону",
    "location": "47.204 39.600",
    "preds": 0.0074049808,
    "target": 1
  },
  {
    "name": "Астанция, ООО, магазин солнечных батарей",
    "address": "Пескова, 7 / Машиностроительный переулок, 1 - 2, 5 офис, 1 этаж",
    "okved_code": "27.12",
    "okved_name": "Производство электрической распределительной и регулирующей аппаратуры",
    "city": "Ростов-на-Дону",
    "location": "47.204 39.600",
    "preds": 0.0074049808,
    "target": 1
  },
  {
    "name": "Астанция, ООО, магазин солнечных батарей",
    "address": "Пескова, 7 / Машиностроительный переулок, 1 - 2, 5 офис, 1 этаж",
    "okved_code": "27.12",
    "okved_name": "Производство электрической распределительной и регулирующей аппаратуры",
    "city": "Ростов-на-Дону",
    "location": "47.204 39.600",
    "preds": 0.0074049808,
    "target": 1
  },
  {
    "name": "Астанция, ООО, магазин солнечных батарей",
    "address": "Пескова, 7 / Машиностроительный переулок, 1 - 2, 5 офис, 1 этаж",
    "okved_code": "27.12",
    "okved_name": "Производство электрической распределительной и регулирующей аппаратуры",
    "city": "Ростов-на-Дону",
    "location": "47.204 39.600",
    "preds": 0.0074049808,
    "target": 1
  },
  {
    "name": "Астанция, ООО, магазин солнечных батарей",
    "address": "Пескова, 7 / Машиностроительный переулок, 1 - 2, 5 офис, 1 этаж",
    "okved_code": "27.12",
    "okved_name": "Производство электрической распределительной и регулирующей аппаратуры",
    "city": "Ростов-на-Дону",
    "location": "47.204 39.600",
    "preds": 0.0074049808,
    "target": 1
  },
  {
    "name": "Лаура, магазин женской одежды",
    "address": "Гоголевский переулок, 4а 䎦 - 1 этаж",
    "okved_code": "14.12",
    "okved_name": "Производство спецодежды",
    "city": "Таганрог",
    "location": "47.219 38.919",
    "preds": 0.0064108536,
    "target": 1
  }
]
